name,address1,address2,address3,borough_name,website,os_addressbase_uprn,borough_code,ward_2022_name,ward_2022_code,latitude,longitude,easting,northing
Brompton Oratory,Brompton Road, ,SW7 2RP,Kensington and Chelsea,,217007711,E09000020,Brompton & Hans Town,E05009389,51.49747072,-0.169815218,527139.0127,179202.0035
Channel 4 Document Archive,124 Horseferry Road, ,SW1P 2TX,Westminster,,1.00E+11,E09000033,St James's,E05013806,51.4957021,-0.132918466,529705.0137,179070.0023
Chelsea and Westminster Hospital Archives,369 Fulham Road, ,SW10 9NH,Kensington and Chelsea,,217033201,E09000020,Stanley,E05009405,51.48425239,-0.181434976,526369.013,177712.0032
ChurchCare Library,Cathedral and Church Buildings Division Archbishop,Church House  27 Great Smith Street,SW1P 3AZ,Westminster,,1.00E+11,E09000033,St James's,E05013806,51.497938,-0.129326046,529948.0131,179325.002
Commonwealth Institute,Commonwealth Resources Centre,Kensington High Street ,W8 6NQ,Kensington and Chelsea,,217044656,E09000020,Holland,E05009397,51.49987443,-0.200159027,525026.2823,179417.0831
DayCare Trust,21 St George Road, ,SE1 6ES,Southwark,,2.00E+11,E09000028,St George's,E05011114,51.49529754,-0.102666646,531806.0131,179079.0036
Employment Policy Institute,Beaufort House ,15 St Botolph Street ,EC3A 7NJ,City of London,,95500292,E09000001,Portsoken,E05009308,51.51506783,-0.075887122,533607.012,181326.0022
General Conference of the New Church,Swedenborg House ,20 Bloomsbury Way ,WC1A 2TH,Camden,,5024660,E09000007,Bloomsbury,E05013653,51.51792235,-0.122727011,530349.0114,181559.0035
Harrods Archive,68-72 Hammersmith Road, ,W14 8YW,Hammersmith and Fulham,,34142299,E09000013,Brook Green,E05013735,51.49454912,-0.213626532,524106.0124,178802.0028
National Council for Voluntary Youth Services,Third Floor ,Lancaster House 33 Islington High Str,N1 9LH,Islington,,10008978268,E09000019,Barnsbury,E05013698,51.5330567,-0.106474468,531433.0126,183271.0007
National Council of Voluntary Child Care Organisation,Unit 25,1st Floor Angel Gate,EC1V 2PT,Islington,,10023216009,E09000019,St Peter's & Canalside,E05013711,51.52925214,-0.101427729,531794.0122,182857.0022
National Institute for Social Work,5 Tavistock Place, ,WC1H 9SN,Camden,,5090642,E09000007,Bloomsbury,E05013653,51.52526291,-0.127384112,530005.0114,182367.0034
National League of the Blind and Disabled,324 Gray's Inn Road, ,WC1X 8DD,Camden,,5166668,E09000007,King's Cross,E05013666,51.52884842,-0.119350731,530552.012,182780.003
Performing Right Society Archives,29/33 Berners Street, ,W1P 4AA,Westminster,,1.00E+11,E09000033,West End,E05013808,51.5184036,-0.137121112,529349.0116,181587.0024
The Theatres Trust Resource Centre,22 Charing Cross Road, ,WC2H 0QL,Westminster,,10033531816,E09000033,St James's,E05013806,51.51060881,-0.12820152,529990.012,180736.0028
Working Mens College,Crowndale Road, ,NW1,Camden,,5005485,E09000007,St Pancras & Somers Town,E05013669,51.53523862,-0.136029812,529377.0117,183461.0027
Writers and Scholars Educational Trust (Index on Cens,6-8 Amwell St, ,EC1R 1UQ,Islington,,5300001787,E09000019,Clerkenwell,E05013702,51.52727965,-0.108473109,531311.0123,182625.001
Photographers Gallery ,6-8 Ramillies Street, ,W1F 7LW,Westminster,,,E09000033,West End,E05013808,51.5155547,-0.138631346,529252.2979,181267.5352
Action for Blind People,14-16 Verney Road, ,SE16 3DZ,Southwark,https://www.rnib.org.uk/who-we-are/action-for-blind-people,2.00E+11,E09000028,Old Kent Road,E05011109,51.48468217,-0.062835752,534602.0131,177971.0024
ActionAid Central Archive,Resource Centre Hamlyn House ,Macdonald Road  Archway,N19 5PG,Islington,https://www.actionaid.org.uk/changelives/donate?src=ppc&utm_content=A197_A822_A000329&ds_rl=1248098&gcli,10012791132,E09000019,Junction,E05013707,51.56568099,-0.135607243,529320.0117,186847.0019
Advertising Association,7th Floor North Artillery House,Regents Park ,SW1P 1RT,Westminster,https://www.adassoc.org.uk/,1.00E+11,E09000033,St James's,E05013806,51.49670957,-0.135196816,529544.0135,179178.003
Age Concern,National Old People's Welfare Council ,Astral House  1268 London Road,SW16 4ER,Croydon,https://www.ageuk.org.uk/,2.00E+11,E09000008,Norbury & Pollards Hill,E05011472,51.40683553,-0.120521531,530819.0079,169210.0009
Agnew's,8 Grafton Street, ,W1S 4EL,Westminster,http://www.agnewsgallery.com/,1.00E+11,E09000033,West End,E05013808,51.51005319,-0.143601127,528923.012,180647.0024
Air League,3 Whitehall Court, ,SW1A2EL,Westminster,https://www.airleague.co.uk/,10033625553,E09000033,St James's,E05013806,51.49984047,-0.132461109,529725.0126,179531.0024
Alexander Fleming Laboratory Museum,St Mary's Hospital ,Praed Street ,W2 1NY,Westminster,https://www.imperial.nhs.uk/about-us/who-we-are/fleming-museum,2.00E+11,E09000033,Hyde Park,E05013796,51.51697102,-0.173544641,526826.0122,181364.0034
Alexandra Park and Palace Charitable Trust,Alexandra Palace Way, ,N22 7AY,Haringey,http://www.alexandrapalace.com/,10003974918,E09000014,Alexandra Park,E05013585,51.59448347,-0.130501429,529592.0124,190059.0004
Alfred Dunhill Museum and Archive,Alfred Dunhill Ltd ,5-7 Mandeville Place ,W1U 3AY,Westminster,https://www.dunhill.com/gb,1.00E+11,E09000033,Marylebone,E05013801,51.5163984,-0.151342371,528368.0117,181339.0029
All Hallows by the Tower,All Hallows Church ,Byward Street ,EC3R 5BJ,City of London,http://www.allhallowsbythetower.org.uk/,2.00E+11,E09000001,Tower,E05009310,51.50933062,-0.079184156,533395.0121,180682.0018
Alleyn's School Archive,Townley Road ,Dulwich ,SE22 8SU,Southwark,https://www.alleyns.org.uk/senior-school/aboutalleyns/school-archive,2.00E+11,E09000028,Goose Green,E05011103,51.45478129,-0.081993244,533359.0119,174611.0024
Alpine Club Archives,55/56 Charlotte Road, ,EC2A 3QF,Hackney,http://www.alpine-club.org.uk/ac2/ac-media/archive,10008348373,E09000012,Hoxton East & Shoreditch,E05009377,51.52591939,-0.080662628,533244.0118,182524.0019
"Amnesty International, International Secretariat",Peter Benenson House ,1 Easton Street ,WC1X 0DW,Islington,https://careers.amnesty.org/,5300029347,E09000019,Clerkenwell,E05013702,51.52582065,-0.111128528,531131.0123,182458.0008
Anglo-Chilean Society,12 Devonshire Street, ,W1N 2DS,Westminster,https://www.anglochileansociety.org/,1.00E+11,E09000033,Marylebone,E05013801,51.52207935,-0.146629122,528679.0115,181979.0032
Anthroposophical Society in Great Britain,Rudolf Steiner House ,35 Park Road ,NW1 6XT,Westminster,https://www.anthroposophy.org.uk/,2.00E+11,E09000033,Regent's Park,E05013805,51.52489743,-0.160555743,527705.0122,182268.0029
Arab-British Chamber of Commerce,43 Upper Grosvenor Street, ,W1K 2NJ,Westminster,https://www.abcc.org.uk/,1.00E+11,E09000033,West End,E05013808,51.51042165,-0.153270578,528251.0116,180671.0023
Architectural Association Archives,No. 32 Bedford Square, ,WC1B 3ES,Camden,https://www.aaschool.ac.uk/AASCHOOL/LIBRARY/archive.php,5183821,E09000007,Bloomsbury,E05013653,51.51853136,-0.131018802,529772.0113,181612.0033
Archives of the British Psychoanalytical Society,Institute of Psychoanalysis Bryon House ,112A Shirland Road ,W9 2BT,Westminster,http://psychoanalysis.org.uk/archive/view-archive-collections,10033595987,E09000033,Maida Vale,E05013800,51.52664589,-0.194378265,525354.0126,182404.0034
Archives of the Royal Philatelic Society London,The Royal Philatelic Society London ,41 Devonshire Place ,W1G 6JY,Westminster,http://www.rpsl.org.uk/library.asp,1.00E+11,E09000033,Marylebone,E05013801,51.52147742,-0.150084306,528441.0117,181906.003
Armenian Institute,Armenian Church Hall, Iverna Gardens ,W8 6TP,Kensington and Chelsea,http://www.armenianinstitute.org.uk/,217116743,E09000020,Abingdon,E05009388,51.49955292,-0.193331863,525501.0123,179393.0028
Art Workers Guild,6 Queen Square, ,WC1N 3AT,Camden,http://www.artworkersguild.org/,5088276,E09000007,Holborn & Covent Garden,E05013662,51.5214067,-0.122987281,530321.0109,181946.0033
Association for the Conservation of Energy,Westgate House ,2a Prebend Street ,N1 8PT,Islington,https://www.ukace.org/,5300075757,E09000019,St Peter's & Canalside,E05013711,51.53567982,-0.096863134,532092.0129,183579.9991
Association of Anaesthetists of Great Britain and Ire,21 Portland Place, ,W1B 1PY,Westminster,https://www.aagbi.org/,10033598850,E09000033,Marylebone,E05013801,51.51939349,-0.145109412,528792.0116,181683.0028
Association of Conservative Clubs Ltd,24 Old Queen Street, ,SW1H 9HP,Westminster,https://www.toryclubs.co.uk/,1.00E+11,E09000033,St James's,E05013806,51.50100242,-0.130886294,529831.0125,179663.002
Association of Directors of Adult Social Services,ADSS Business Unit Local Government House ,Smith Square ,SW1P 3HZ,Westminster,https://www.adass.org.uk/home,10033543338,E09000033,St James's,E05013806,51.49557688,-0.126757514,530133.0136,179067.0024
Athenaeum,107 Pall Mall, ,SW1Y 5ER,Westminster,http://www.athenaeumclub.co.uk/,1.00E+11,E09000033,St James's,E05013806,51.50684074,-0.132707924,529688.0123,180309.0023
Baltic Exchange,38 St Mary Axe, ,EC3A 8BH,City of London,https://www.balticexchange.com/,1.00E+11,E09000001,Aldgate,E05009289,51.51497647,-0.08018605,533309.012,181308.0017
Bank of England Archive,Threadneedle Street, ,EC2R 8AH,City of London,https://www.bankofengland.co.uk/archive,2.00E+11,E09000001,Walbrook,E05009312,51.51418809,-0.088621829,532726.0118,181205.0021
Bankside Gallery,48 Hopton Street, Blackfriars ,SE1 9JH,Southwark,https://www.banksidegallery.com/,2.00E+11,E09000028,Borough & Bankside,E05011095,51.50819212,-0.100934689,531889.0116,180516.0019
Barbers Company,Barber-Surgeons' Hall ,1 Monkwell Square  Wood Street ,EC2Y 5BL,City of London,http://barberscompany.org/,2.00E+11,E09000001,Cripplegate,E05009302,51.5180174,-0.094601756,532300.0124,181619.9985
Baring Archive,8-10 Moorgate, ,EC2R 6DA,City of London,https://www.baringarchive.org.uk/,95512518,E09000001,Broad Street,E05009295,51.51551699,-0.089226292,532680.2119,181351.6813
Barnet Local Studies and Archives,The Burroughs, ,NW4 4BQ,Barnet,https://www.barnet.gov.uk/citizen-home/libraries/local-studies-and-archives.html,200222812,E09000003,Hendon,E05013643,51.58859385,-0.228932832,522790.1859,189234.2074
Barnet Museum,31 Wood Street, ,EN5 4BE,Barnet,http://www.barnetmuseum.co.uk/,200128241,E09000003,High Barnet,E05013644,51.65287654,-0.202296261,524459.5518,196427.9224
Ben Uri Art Society and Gallery,108a Boundary Road, ,NW8 0RH,Camden,http://www.benuri.org.uk/,5144462,E09000007,Kilburn,E05013665,51.5375408,-0.185367081,525949.012,183631.0028
Bexley Local Studies and Archive Centre,Central Library ,Townley Road  ,DA6 7HJ,Bexley,https://www.bexley.gov.uk/services/archives-and-local-history,1.00E+11,E09000004,Bexleyheath,E05011219,51.45599566,0.143775809,549040.0135,175181.0046
Bible Churchmens Missionary Society,BCMS Crosslinks, 251 Lewisham Way ,SE4,Lewisham,https://missiology.org.uk/societies_bcms.php,1.00E+11,E09000023,Brockley,E05013716,51.46925434,-0.026960722,537139.0087,176322.0052
Bishopsgate Institute,230 Bishopsgate, ,EC2M 4QH,City of London,http://www.bishopsgate.org.uk/,1.00E+11,E09000001,Bishopsgate,E05009292,51.5187111,-0.079250559,533363.0118,181725.0025
Black Cultural Archives,1 Windrush Square ,Brixton ,SW2 1EF,Lambeth,https://blackculturalarchives.org/,10091118537,E09000022,Brixton Windrush,E05014098,51.46051638,-0.114572316,531079.1711,175189.9522
Blind Veterans UK,12-14 Harcourt Street, ,W1H 4HD,Westminster,https://www.blindveterans.org.uk/,10033535975,E09000033,Marylebone,E05013801,51.52012515,-0.164755341,527427.0121,181730.0027
Book Trust,Book House ,45 East Hill ,SW18 2QZ,Wandsworth,https://www.booktrust.org.uk/,121011471,E09000032,Wandsworth Town,E05014028,51.45797137,-0.184048133,526260.0119,174785.0017
Brent Museum and Archives,The Library at Willesden Green ,95 High Road Willesden,NW10 2SF,Brent,https://www.brent.gov.uk/archives,202149110,E09000005,Willesden Green,E05013517,51.5466504,-0.228921501,522904.0119,184570.0027
British Academy,10 Carlton House Terrace, ,SW1Y 5AH,Westminster,https://www.thebritishacademy.ac.uk/,1.00E+11,E09000033,St James's,E05013806,51.5063498,-0.131243765,529791.0123,180257.0023
British Actors' Equity Association,Guild House ,Upper St Martins Lane ,WC2H 9EG,Westminster,https://www.equity.org.uk/,1.00E+11,E09000033,St James's,E05013806,51.51208035,-0.127997054,530000.0117,180900.0025
British Airways Heritage Collection,Waterside Speedbird Way,Harmondsworth ,UB7 0GA,Hillingdon,https://www.britishairways.com/en-gb/information/about-ba/history-and-heritage/heritage-collection,1.00E+11,E09000017,Heathrow Villages,E05013570,51.48549094,-0.487020906,505149.0129,177367.0018
British Board of Film Classification,3 Soho Square, ,W1D 3HD,Westminster,http://www.bbfc.co.uk/,1.00E+11,E09000033,West End,E05013808,51.51533741,-0.133181828,529631.0118,181253.0024
British Council,10 Spring Gardens, ,SW1A 2BN,Westminster,https://www.britishcouncil.org/,1.00E+11,E09000033,St James's,E05013806,51.50699994,-0.129718478,529895.0123,180332.002
British Deaf Association,1-3 Worship Street, ,EC2A 2AB,Islington,https://bda.org.uk/,5300099044,E09000019,Bunhill,E05013699,51.5223107,-0.086551737,532846.0117,182112.0013
British Dental Association Museum,64 Wimpole Street, ,W1G 8YS,Westminster,https://bda.org/museum,1.00E+11,E09000033,Marylebone,E05013801,51.5185766,-0.148616377,528551.0117,181586.0027
British Film Institute (BFI) National Archive,21 Stephen Street, ,W1T 1LN,Camden,https://www.bfi.org.uk/archive-collections,5158427,E09000007,Bloomsbury,E05013653,51.51785121,-0.132920441,529642.0116,181533.0024
"British Film Institute, Special Collections",BFI Southbank ,Belvedere Road ,SE1 8XT,Lambeth,https://www.bfi.org.uk/archive-collections/introduction-bfi-collections/exploring-collections/special-co,2.00E+11,E09000022,Waterloo & South Bank,E05014118,51.5069462,-0.115937366,530851.5021,180350.5519
British Heart Foundation,Greater London House  ,180 Hampstead Road ,NW1 7AW,Camden,https://www.bhf.org.uk/,5088648,E09000007,Regent's Park,E05013668,51.53344266,-0.139592511,529135.0114,183255.0025
British Humanist Association,1 Gower Street, ,WC1E 6HD,Camden,https://humanism.org.uk/,5088342,E09000007,Bloomsbury,E05013653,51.51979395,-0.130116644,529831.011,181754.0035
British Institute of Radiology,36 Portland Place, ,W1B 1AT,Westminster,https://www.bir.org.uk/,1.00E+11,E09000033,West End,E05013808,51.52001346,-0.144507634,528832.0115,181753.0027
British Library Corporate Archives,British Library ,96 Euston Road ,NW1 2DB,Camden,http://searcharchives.bl.uk/primo_library/libweb/action/search.do?dscnt=1&dstmp=1542715917978&vid=IAMS_V,5037737,E09000007,St Pancras & Somers Town,E05013669,51.52998677,-0.126988356,530019.012,182893.0028
"British Library, Manuscript Collections/Map Library/M",96 Euston Road, ,NW1 2DB,Camden,https://www.bl.uk/subjects/manuscripts-and-archives,5037737,E09000007,St Pancras & Somers Town,E05013669,51.52998677,-0.126988356,530019.012,182893.0028
"British Museum Central Archive, Ethnography Library, ",British Museum ,1 Great Russell Street ,WC1B 3DG,Camden,https://www.britishmuseum.org/research/libraries_and_archives.aspx,5090682,E09000007,Bloomsbury,E05013653,51.51936411,-0.126847821,530059.0108,181712.004
British Olympic Association,60 Charlotte Street, ,W1T 2NU,Camden,https://www.teamgb.com/,5155903,E09000007,Bloomsbury,E05013653,51.52004232,-0.136117275,529414.0113,181771.0033
British Plastics Federation,5 - 6 Bath Place ,Rivington Street ,EC2A 3JE,Hackney,http://www.bpf.co.uk/,10008338301,E09000012,Hoxton East & Shoreditch,E05009377,51.52631281,-0.082722063,533100.0119,182564.002
British Psychological Society: History of Psychology ,30 Tabernacle St, ,EC2A 4UE,Islington,https://www.bps.org.uk/about-us/history-psychology-centre,5300089442,E09000019,Bunhill,E05013699,51.52319332,-0.086082254,532876.0117,182211.0024
British Red Cross Museum and Archives,UK Office ,44 Moorfields ,EC2Y 9AL,City of London,https://www.redcross.org.uk/about-us/our-history/museum-and-archives,2.00E+11,E09000001,Coleman Street,E05009299,51.51908359,-0.08858643,532714.2419,181749.4506
British Retail Consortium,Second Floor ,21 Dartmouth Street ,SW1H 9BP,Westminster,https://brc.org.uk/,1.00E+11,E09000033,St James's,E05013806,51.50031567,-0.131807714,529769.0125,179585.0023
British School of Osteopathy,275 Borough High Street, ,SE1 1JE,Southwark,https://www.uco.ac.uk/,2.00E+11,E09000028,Chaucer,E05011098,51.50008115,-0.094312879,532372.0114,179626.0032
British Universities Film and Video Council,77 Wells Street, ,W1T 3QJ,Westminster,http://bufvc.ac.uk/,10033579368,E09000033,West End,E05013808,51.51637417,-0.137304849,529342.0119,181361.0028
British Veterinary Association,7 Mansfield Street, ,W1G 9NQ,Westminster,https://www.bva.co.uk/,1.00E+11,E09000033,Marylebone,E05013801,51.51901537,-0.146220252,528716.0117,181639.0027
British-German Association,34 Belgrave Square, ,SW1X 8QB,Westminster,https://www.britishgermanassociation.org/,1.00E+11,E09000033,Knightsbridge & Belgravia,E05013797,51.49860148,-0.151890056,528380.0126,179359.0024
Broomfield House Museum,Broomfield Park Palmers Green, ,N13,Enfield,http://www.broomfieldhouse.org/,207169245,E09000010,Palmers Green,E05013688,51.61844628,-0.11800416,530389.0156,192746.0019
Brunel University Archives,The Old School House ,1 Hillingdon Road  Uxbridge,UB10 0AA,Hillingdon,https://www.brunel.ac.uk/about/Archives,1.00E+11,E09000017,Hillingdon West,E05013572,51.53662881,-0.471007019,506142.018,183077.0051
Brunel University Library,Kingston Lane,Uxbridge ,UB8 3PH,Hillingdon,https://www.brunel.ac.uk/life/library,1.00E+11,E09000017,Colham & Cowley,E05013566,51.53283992,-0.472835336,506024.0137,182653.0034
BT Archives,3rd Floor Holborn Telephone Exchange ,268-270 High Holborn ,WC1V 7EE,Camden,https://www.btplc.com/Thegroup/BTsHistory/BTgrouparchives/index.htm,5086502,E09000007,Holborn & Covent Garden,E05013662,51.51761085,-0.116758156,530764.0117,181535.0026
Building Societies Association,6th Floor,York House  23 Kingsway,WC2B 6UJ,Westminster,https://www.bsa.org.uk/,10033583375,E09000033,St James's,E05013806,51.51389915,-0.118583158,530648.0117,181119.0027
C Hoare & Co,37 Fleet Street, ,EC4P 4DQ,City of London,https://www.hoaresbank.co.uk/,95513039,E09000001,Farringdon Without,E05009305,51.51377693,-0.1096323,531269.4113,181121.4133
Camden Local Studies and Archives Centre,Holborn Library ,32-38 Theobalds Road ,WC1X 8PA,Camden,https://www.camden.gov.uk/ccm/navigation/leisure/libraries-and-online-learning-centres/local-history/,5082117,E09000007,Holborn & Covent Garden,E05013662,51.52118201,-0.115702644,530827.0116,181934.0026
CAMLIS (Complimentary and Alternative Medicine Librar,The Royal London Homoeopathic Hospital ,60 Great Ormond Street ,WC1N 3HR,Camden,http://www.uclh.nhs.uk/ourservices/ourhospitals/rlhim/pages/camlis.aspx,5123747,E09000007,Holborn & Covent Garden,E05013662,51.52174058,-0.121373486,530432.0112,181986.0032
Campaign for Better Transport ,16 Waterside ,44-48 Wharf Road ,N1 7UX,Hackney,https://bettertransport.org.uk/,10008319406,E09000012,Hoxton West,E05009378,51.5319723,-0.096152741,532152.0134,183168.9989
Canning House Library,2 Belgrave Square, ,SW1X 8PJ,Westminster,https://www.canninghouse.org/library/,1.00E+11,E09000033,Knightsbridge & Belgravia,E05013797,51.5003496,-0.154398373,528201.0121,179549.0032
Carpenters Company,Carpenters Hall ,Throgmorton Avenue ,EC2N 2JJ,City of London,http://www.carpentersco.com/,95511248,E09000001,Broad Street,E05009295,51.51669821,-0.085936685,532905.0116,181489.002
Catholic Bishops' Conference of England and Wales,Catholic Trust for England and Wales ,39 Eccleston Square ,SW1V 1BX,Westminster,http://www.cbcew.org.uk/,1.00E+11,E09000033,Pimlico North,E05013802,51.49106651,-0.144765532,528895.7529,178533.6131
Catholic Education Service,39 Eccleston Square, ,SW1V 1BX,Westminster,http://www.catholiceducation.org.uk/,1.00E+11,E09000033,Pimlico North,E05013802,51.49106651,-0.144765532,528895.7529,178533.6131
Catholic Truth Society,40-46 Harleyford Road, ,SE11 5AY,Lambeth,http://www.ctsbooks.org/,1.00E+11,E09000022,Vauxhall,E05014117,51.48531584,-0.120552493,530593.014,177937.0036
Catholic Union of Great Britain,St Maximilian Kolbe House ,63 Jeddo Road ,W12 9EE,Hammersmith and Fulham,http://catholicunion.org.uk/,34000250,E09000013,Wendell Park,E05013750,51.50441554,-0.248918069,521630.0132,179840.0028
Cayzer Family Archive,Cayzer House ,30 Buckingham Gate ,SW1E 6NN,Westminster,http://www.cayzer.com/,1.00E+11,E09000033,St James's,E05013806,51.49918072,-0.139043655,529270.0127,179446.0027
Central School of Speech and Drama,Embassy Theatre ,64 Eton Avenue ,NW3 3HY,Camden,https://www.cssd.ac.uk/,5139115,E09000007,Belsize,E05013652,51.54432753,-0.174179507,526706.0115,184405.0026
Charles Dickens Museum,48 Doughty Street, ,WC1N 2LF,Camden,https://dickensmuseum.com/,5087477,E09000007,Holborn & Covent Garden,E05013662,51.52360065,-0.116237045,530783.0119,182202.0023
Chartered Insitute of Taxation,Tony Arnold Library,Maughan Library Chancery Lane,WC2A 1LR,City of London,https://www.tax.org.uk/homepage,95509816,E09000001,Farringdon Without,E05009305,51.51520531,-0.110328375,531217.0114,181279.0027
Chartered Institute of Journalists,2 Dock Offices ,Surrey Quays Road ,SE16 2XU,Southwark,https://cioj.org/,2.00E+11,E09000028,Rotherhithe,E05011112,51.49677063,-0.051027719,535386.012,179337.0029
Chartered Institute of Library and Information Profes,7 Ridgmount Street, ,WC1E 7AE,Camden,https://www.cilip.org.uk/,5088287,E09000007,Bloomsbury,E05013653,51.52030934,-0.131421658,529739.011,181809.0031
Chartered Institute of Public Finance and Accountancy,3 Robert Street, ,WC2N 6BH,Westminster,https://www.cipfa.org/,1.00E+11,E09000033,St James's,E05013806,51.50874887,-0.122671958,530379.0123,180539.0026
Chartered Insurance Institute,42-48 High Road,South Woodford ,E18 2JP,Redbridge,https://www.cii.co.uk/,1.00E+11,E09000026,South Woodford,E05011252,51.59393333,0.022654036,540201.5173,190280.4087
Chelsea Library,Old Town Hall ,Kings Road ,SW3 5EZ,Kensington and Chelsea,https://www.rbkc.gov.uk/libraries/your-library/find-library/chelsea-library,217105143,E09000020,Royal Hospital,E05009403,51.48747216,-0.168170333,527281.0156,178093.0047
Chelsea Physic Garden,66 Royal Hospital Road, ,SW3 4HS,Kensington and Chelsea,https://www.chelseaphysicgarden.co.uk/,217102618,E09000020,Royal Hospital,E05009403,51.48457384,-0.162251549,527700.0136,177781.0035
Chemical Industries Association,Kings Buildings ,Smith Square ,SW1P 3JJ,Westminster,https://www.cia.org.uk/,10033571884,E09000033,St James's,E05013806,51.49575664,-0.126188277,530172.0135,179088.0031
Chiswick Library Local Studies Service,Chiswick Library, Duke's Avenue ,W4 2AB,Hounslow,https://www.hounslow.gov.uk/info/20136/other_library_services/1692/local_history_and_archives,2.00E+11,E09000018,Chiswick Gunnersbury,E05013609,51.49169574,-0.261085466,520819.2126,178405.4019
Church Times,108-114 Golden Lane, ,EC1Y 0TG,Islington,https://www.churchtimes.co.uk/,10090262788,E09000019,Bunhill,E05013699,51.52353627,-0.094991154,532257.0129,182232.9981
"Cinema Museum, Ronald Grant Archive",The Master's House ,The Old Lambeth Workhouse  2 Dugard W,SE11 4TH,Lambeth,http://www.ronaldgrantarchive.com/,10023852579,E09000022,Kennington,E05014105,51.49228045,-0.105168913,531641.0113,178739.0023
City of London Club,19 Old Broad Street, ,EC2N 1DS,City of London,http://www.cityoflondonclub.com/,1.00E+11,E09000001,Cornhill,E05009301,51.5149871,-0.08468246,532997.0117,181301.0025
City of London Police Museum,Police Headquarters ,37 Wood St ,EC2P 2NP,City of London,https://www.cityoflondon.police.uk/about-us/history/museum/Pages/default.aspx,1.00E+11,E09000001,Bassishaw,E05009290,51.51667263,-0.093749855,532363.0122,181471.9996
City of London School,William Hallet Archive Room City of London School ,Queen Victoria Street ,EC4V 3AL,City of London,https://www.cityoflondonschool.org.uk/,1.00E+11,E09000001,Queenhithe,E05009309,51.51102633,-0.099361206,531990.0118,180834.0002
City of Westminster Archives Centre,10 St Ann's Street, ,SW1P 2DE,Westminster,https://www.westminster.gov.uk/archives,1.00E+11,E09000033,St James's,E05013806,51.49755544,-0.130148527,529892.0132,179281.0025
"City, University of London",Northampton Square, ,EC1V 0HB,Islington,https://www.city.ac.uk/,5300067719,E09000019,Clerkenwell,E05013702,51.52770618,-0.102587756,531718.012,182683.0021
Civic Trust,17 Carlton House Terrace, ,SW1Y 5AW,Westminster,https://www.civictrust.org.uk/,1.00E+11,E09000033,St James's,E05013806,51.50671003,-0.130148252,529866.0123,180299.0017
Clothworkers Company,Clothworkers' Hall ,Dunster Court  Mincing Lane,EC3R 7AH,City of London,https://www.clothworkers.co.uk/,95511249,E09000001,Tower,E05009310,51.51152987,-0.081138094,533253.0123,180923.0012
College of Arms,Queen Victoria Street, ,EC4V 4BT,City of London,https://www.college-of-arms.gov.uk/,1.00E+11,E09000001,Castle Baynard,E05009297,51.51223825,-0.098676614,532034.012,180969.9995
Commonwealth Parliamentary Association,Suite 700 Westminster House ,7 Millbank ,SW1P 3JA,Westminster,http://www.cpahq.org/cpahq/,10033584807,E09000033,St James's,E05013806,51.49644332,-0.126390616,530156.0134,179164.0029
Commonwealth Secretariat,Marlborough House ,Pall Mall ,SW1Y 5HX,Westminster,http://thecommonwealth.org/,1.00E+11,E09000033,St James's,E05013806,51.50514791,-0.135961714,529467.0122,180115.0025
Community Service Volunteers,237 Pentonville Road, ,N1 9NJ,Islington,https://volunteeringmatters.org.uk/news/national-charity-community-service-volunteers-csv-becomes-volunt,10093112761,E09000019,Clerkenwell,E05013702,51.53092502,-0.11818378,530627.0121,183013.003
Confederation of Indian Organisations (UK),5 Westminster Bridge Road, ,SE1 7XW,Southwark,http://www.ciostrokeproject.co.uk/,10000813756,E09000028,St George's,E05011114,51.49843095,-0.105691744,531587.0124,179422.0025
Congregational Library,14 Gordon Square, ,WC1H 0AR,Camden,http://conglib.co.uk/,5162943,E09000007,Bloomsbury,E05013653,51.52393564,-0.131561459,529719.0113,182212.0035
Conservative Christian Fellowship,CCHQ ,30 Millbank  ,SW1P 4DP,Westminster,https://www.christian-conservatives.org.uk/,10033598461,E09000033,Vincent Square,E05013807,51.49272186,-0.125923818,530199.0123,178751.0025
Conservative Party Research Department, 25 Victoria Street, ,SW1H 0DL,Westminster,https://www.conservativehome.com/tag/conservative-research-department,1.00E+11,E09000033,St James's,E05013806,51.49813388,-0.132588528,529721.0131,179341.0025
Co-operative Party,77 Weston Street, ,SE1 3SD,Southwark,https://party.coop/,2.00E+11,E09000028,London Bridge & West Bermondsey,E05011104,51.50207687,-0.085987748,532944.0116,179863.0006
Corps of Commissionaires (Corps Security),85 Cowcross Street, ,EC1M 6PF,Islington,https://www.corpssecurity.co.uk/,5300024887,E09000019,Clerkenwell,E05013702,51.52003774,-0.102733663,531730.0118,181830.0013
Council for the Advancement of Arab-British Understan,1 Gough Square, ,EC4A 3DE,City of London,https://www.caabu.org/,1.00E+11,E09000001,Castle Baynard,E05009297,51.51514167,-0.108053774,531375.0114,181276.0026
Countryside Alliance,The Old Town ,367 Kennington Road ,SE11 4PT,Lambeth,http://www.countryside-alliance.org/,1.00E+11,E09000022,Kennington,E05014105,51.48681908,-0.111128096,531243.0129,178121.0027
Coutts & Co,Archives Department ,440 Strand ,WC2R 0QS,Westminster,https://www.coutts.com/,1.00E+11,E09000033,St James's,E05013806,51.50910072,-0.124992068,530217.0122,180574.0019
Crisis,66 Commercial Street, ,E1 6LT,Tower Hamlets,https://www.crisis.org.uk/,6155270,E09000030,Spitalfields & Banglatown,E05009333,51.51811045,-0.073885005,533737.0119,181668.0032
De Morgan Centre,West Hill Library ,38 West Hill ,SW18 1RZ,Wandsworth,http://www.demorgan.org.uk/,121007255,E09000032,East Putney,E05014011,51.45713641,-0.200476777,525121.013,174664.0028
D'Oyly Carte Opera Company,N302 North Block Vox Studios, ,SE11 5JH,Lambeth,http://www.doylycarte.org.uk/,1.00E+11,E09000022,Kennington,E05014105,51.48847861,-0.11087226,531256.0124,178306.0023
Dr Johnson's House,17 Gough Square, ,EC4A 3DE,City of London,http://www.drjohnsonshouse.org/,1.00E+11,E09000001,Castle Baynard,E05009297,51.51503546,-0.108159067,531368.0114,181264.0031
Dr Williams's Library,14 Gordon Square, ,WC1H 0AR,Camden,http://www.dwl.ac.uk/,5162943,E09000007,Bloomsbury,E05013653,51.52393564,-0.131561459,529719.0113,182212.0035
Drapers' Company,Drapers' Hall ,Throgmorton Avenue ,EC2N 2DQ,City of London,https://www.thedrapers.co.uk/,95511252,E09000001,Broad Street,E05009295,51.51523928,-0.0863582,532880.0117,181326.002
Duchy of Cornwall Office,10 Buckingham Gate, ,SW1E 6LA,Westminster,https://duchyofcornwall.org/contact-details.html,1.00E+11,E09000033,St James's,E05013806,51.49993301,-0.141116576,529124.0124,179526.0027
Duchy of Lancaster Office,1 Lancaster Place ,Strand ,WC2E 7ED,Westminster,https://www.duchyoflancaster.co.uk/,1.00E+11,E09000033,St James's,E05013806,51.51013113,-0.118579941,530659.0121,180700.0018
Dulwich College Archive,Dulwich College ,Dulwich Common ,SE21 7LD,Southwark,https://www.dulwich.org.uk/about/history/the-archives,2.00E+11,E09000028,Dulwich Wood,E05011101,51.44028029,-0.085018121,533191.012,172993.0025
Dulwich Picture Gallery,Gallery Road, ,SE21 7AD,Southwark,https://www.dulwichpicturegallery.org.uk/,2.00E+11,E09000028,Dulwich Village,E05011100,51.4459777,-0.086420365,533077.0118,173624.0012
Ealing Local History Centre,Central Library ,103 Ealing Broadway Centre  The Broad,W5 5JY,Ealing,https://www.ealing.gov.uk/info/201129/local_history/1888/local_history_centre/1,12148296,E09000009,Ealing Broadway,E05013520,51.51233212,-0.302370117,517900.0125,180633.0033
East London Mosque & London Muslim Centre Archive,4th Floor ,46-92 Whitechapel Road ,E1 1JX,Tower Hamlets,https://www.eastlondonmosque.org.uk/content/east-london-mosque-london-muslim-centre-archive-collections,6012773,E09000030,Whitechapel,E05009336,51.51746961,-0.065552047,534317.012,181612.0038
Egypt Exploration Society,Lucy Gura Archive ,3 Doughty Mews ,WC1N 2PG,Camden,https://www.ees.ac.uk/,5020719,E09000007,Holborn & Covent Garden,E05013662,51.52315343,-0.116947449,530735.0117,182151.0031
Eighteen Stafford Terrace: Sambourne Family Archive,18 Stafford Terrace, ,W8 7BH,Kensington and Chelsea,https://www.rbkc.gov.uk/subsites/museums/18staffordterrace1.aspx,217107937,E09000020,Campden,E05009390,51.50045223,-0.196840681,525255.0122,179487.0033
Electoral Reform Society of Great Britain and Ireland,Thomas Hare House ,6 Chancel Street ,SE1 0UU,Southwark,https://www.electoral-reform.org.uk/,2.00E+11,E09000028,Borough & Bankside,E05011095,51.50515771,-0.102919768,531760.0115,180175.0031
Electrical Contractors' Association,ESCA House ,34 Palace Court ,W2 4HY,Westminster,https://www.eca.co.uk/,1.00E+11,E09000033,Bayswater,E05013793,51.51178125,-0.192055219,525556.0126,180755.0032
Emanuel School,Battersea Rise, ,SW11 1HS,Wandsworth,http://www.emanuel.org.uk/,1.00E+11,E09000032,Wandsworth Common,E05014027,51.45665326,-0.173290163,527011.0102,174657.001
EMI Group Archive Trust,Dawley Road,Hayes ,UB3 1HH,Hillingdon,https://www.emiarchivetrust.org/,10022797517,E09000017,Hayes Town,E05013569,51.5081604,-0.430243685,509037.0122,179971.0001
Enfield Local Studies Library and Archive,First Floor Thomas Hardy House ,39 London Road ,EN2 6DS,Enfield,https://www.dugdalecentre.co.uk/page/local-studies-library-and-archive/,207007119,E09000010,Town,E05013693,51.65031766,-0.081118167,532849.2911,196356.6622
English Folk Dance and Song Society: Vaughan Williams,Cecil Sharp House ,2 Regents Park Road ,NW1 7AY,Camden,https://www.vwml.org/,5066674,E09000007,Primrose Hill,E05013667,51.53810212,-0.149337866,528446.0119,183756.0026
English National Ballet Archives,Markova House, 39 Jays Mews ,SW7 2ES,Westminster,https://www.ballet.org.uk/research-enquiries/,1.00E+11,E09000033,Knightsbridge & Belgravia,E05013797,51.50074685,-0.17866026,526516.0121,179551.0029
English National Opera Archive,185 Broadhurst Gardens, ,NW6 3AX,Camden,https://www.eno.org/,5082898,E09000007,South Hampstead,E05013670,51.54618942,-0.190460152,525572.0105,184584.0025
English-Speaking Union of the Commonwealth,Page Memorial Library Dartmouth House, ,W1J 5ED,Westminster,https://www.esu.org/,1.00E+11,E09000033,West End,E05013808,51.50786441,-0.146788412,528708.0119,180398.0027
European Movement,Southbank House, Black Prince Road ,SE1 7SJ,Lambeth,http://www.europeanmovement.co.uk/,1.00E+11,E09000022,Vauxhall,E05014117,51.49222021,-0.11986521,530621.0116,178706.0018
Evangelical Alliance,176 Copenhagen Street, ,N1 0ST,Islington,https://www.eauk.org/,10012792269,E09000019,Caledonian,E05013700,51.53708312,-0.119746587,530501.0122,183695.003
Evangelical Library,5/6 Gateway Mews,Ringway Bounds Green ,N11 2UT,Haringey,http://www.evangelical-library.org.uk/,10003984141,E09000014,Bounds Green,E05013586,51.60960732,-0.13437207,529281.0149,191734.0018
Faber Archive,Faber & Faber Ltd Bloomsbury House ,74-77 Great Russell Street ,WC1B 3DA,Camden,https://www.faber.co.uk/blog/tag/faber-archive/,5088411,E09000007,Bloomsbury,E05013653,51.51922382,-0.12425903,530239.011,181701.0032
Federation of British Artists,17 Carlton House Terrace, ,SW1Y 5BD,Westminster,https://www.mallgalleries.org.uk/about-us/federation-british-artists,1.00E+11,E09000033,St James's,E05013806,51.50671,-0.13015,529865.8911,180298.9953
Federation of Master Builders,Gordon Fisher House ,14-15 Great James Street ,WC1N 3DP,Camden,https://www.fmb.org.uk/,5087806,E09000007,Holborn & Covent Garden,E05013662,51.5216858,-0.11684,530746.6672,181987.9936
Fields in Trust (formerly the National Playing Fields,2nd Floor,15 Crinan Street ,N1 9SQ,Islington,http://www.fieldsintrust.org/,10093624079,E09000019,Caledonian,E05013700,51.53442884,-0.1219,530359.255,183396.0096
Finance and Leasing Association,2nd Floor Imperial House ,15-19 Kingsway ,WC2B 6UN,Westminster,https://www.fla.org.uk/home/,10033589788,E09000033,St James's,E05013806,51.51371733,-0.11846,530657.077,181099.0039
Fishmongers Company,Fishmongers Hall, London Bridge ,EC4 9EL,City of London,http://www.fishhall.org.uk/,2.00E+11,E09000001,Bridge,E05009294,51.50935936,-0.087541437,532815.0118,180670.0018
Folklore Society Archives,University College London Library,Special Collections Gower Street ,WC1E 6BT,Camden,https://www.ucl.ac.uk/library/special-collections/a-z/folklore,5157421,E09000007,Bloomsbury,E05013653,51.5248441,-0.13326858,529598.0115,182310.0031
Food and Drink Federation,6 Catherine Street, ,WC2B 5JJ,Westminster,https://www.fdf.org.uk/,1.00E+11,E09000033,St James's,E05013806,51.51270833,-0.12003022,530551.0117,180984.0028
Football Association,25 Soho Square, ,W1D 4FA,Westminster,http://www.thefa.com/,10033604804,E09000033,West End,E05013808,51.51516082,-0.13112801,529774.0118,181237.0021
Foster + Partners,Riverside ,22 Hester Road ,SW11 4AN,City of London,https://www.fosterandpartners.com/,95509816,E09000001,Farringdon Without,E05009305,51.51520531,-0.110328375,531217.0114,181279.0027
Foyle Special Collections Library/ Foreign and Common,King's College Chancery Lane, ,WC2A 1LR,Wandsworth,https://www.kcl.ac.uk/library/archivespec/special-collections/Individualcollections/fco.aspx,121016628,E09000032,Battersea Park,E05014010,51.48076694,-0.168381317,527285.0122,177347.0028
Franciscan Archives English Province,Franciscan Friary ,56 St Antony's Road  Forest Gate,E7 9QB,Newham,http://www.friar.org/our-heritage,46068665,E09000025,Green Street West,E05013914,51.53951262,0.024906099,540525.0128,184233.0016
Franco-British Society,2 Dovedale Studios ,465 Battersea Park Road ,SW11 4LR,Wandsworth,http://www.franco-british-society.org/,1.00E+11,E09000032,Battersea Park,E05014010,51.47225363,-0.163379903,527656.0123,176409.002
French Protestant Church,8-9 Soho Sq, ,W1D 3QD,Westminster,http://www.egliseprotestantelondres.org.uk/en/,10033543361,E09000033,West End,E05013808,51.51580427,-0.133133904,529633.0118,181305.0025
Freud Museum,20 Maresfield Gardens, ,NW3 5SX,Camden,https://www.freud.org.uk/,5012934,E09000007,Belsize,E05013652,51.54842189,-0.177246355,526482.0102,184855.0022
"Friars Minor, English Province Archives",The Friary ,58 St Antony's Road  Forest Gate,E7 9QB,Newham,http://www.friar.org/our-heritage,46068665,E09000025,Green Street West,E05013914,51.53951262,0.024906099,540525.0128,184233.0016
Friends of the Hebrew University of Jerusalem,126 Albert Street, ,NW1 7NE,Camden,https://www.bfhu.org/,5088430,E09000007,Camden Town,E05013655,51.53747892,-0.144042224,528815.0119,183696.0031
Garden Museum Archives,Garden Museum ,5 Lambeth Palace Road ,SE1 7LB,Lambeth,https://gardenmuseum.org.uk/archive/,1.00E+11,E09000022,Waterloo & South Bank,E05014118,51.49504923,-0.12019536,530590.0135,179020.0031
Garrick Club Library,Garrick Club ,15 Garrick Street ,WC2E 9AY,Westminster,https://www.garrickclub.co.uk/library/,10033599098,E09000033,St James's,E05013806,51.51130593,-0.126241768,530124.0118,180817.0028
Museum of the Home (formerly Geffrye Museum) ,Kingsland Road, ,E2 8EA,Hackney,https://www.geffrye-museum.org.uk/,1.00E+11,E09000012,Haggerston,E05009375,51.53155722,-0.076244067,533534.0127,183158.9985
General Dental Council,37 Wimpole Street, ,W1G 8DQ,Westminster,https://www.gdc-uk.org/,10033579475,E09000033,Marylebone,E05013801,51.51979279,-0.148754417,528538.0117,181721.0026
Geological Society of London,Burlington House ,Piccadilly ,W1J 0BG,Westminster,https://www.geolsoc.org.uk/,1.00E+11,E09000033,West End,E05013808,51.50909914,-0.139576037,529205.0122,180548.0025
Geologists Association,Burlington House, Piccadilly ,W1J 0DU,Westminster,https://geologistsassociation.org.uk/,1.00E+11,E09000033,West End,E05013808,51.50909914,-0.139576037,529205.0122,180548.0025
George Padmore Institute,76 Stroud Green Road, ,N4 3EN,Haringey,https://www.georgepadmoreinstitute.org/,1.00E+11,E09000014,Stroud Green,E05013600,51.56813088,-0.109447471,531126.0134,187166.0008
German Historical Institute London,17 Bloomsbury Square, ,WC1A 2NJ,Camden,https://www.ghil.ac.uk/home.html,5087926,E09000007,Bloomsbury,E05013653,51.51890444,-0.123969462,530260.0111,181666.0027
Gimpel Fils,30 Davies Street, ,W1K 4NB,Westminster,http://www.gimpelfils.com/,1.00E+11,E09000033,West End,E05013808,51.51195324,-0.14774652,528630.0118,180851.0029
Girlguiding UK,17-19 Buckingham Palace Road, ,SW1W 0PT,Westminster,https://www.girlguiding.org.uk/,10033531078,E09000033,St James's,E05013806,51.49875796,-0.143008591,528996.0127,179392.003
GlaxoSmithKline Heritage Archives,GSK House 980 Great West Road,Brentford ,TW8 9GS,Hounslow,https://www.gsk.com/en-gb/about-us/our-history/gsk-heritage-archives/,2.00E+11,E09000018,Brentford West,E05013608,51.48869905,-0.315612974,517041.6162,177983.6968
Goldsmiths Company,Goldsmith's Hall ,Foster Lane ,EC2V 6BN,City of London,https://www.thegoldsmiths.co.uk/,2.00E+11,E09000001,Cheap,E05009298,51.51589613,-0.095771311,532225.0123,181381.999
Great Britain - China Centre,15 Belgrave Square, ,SW1X 8PS,Westminster,http://www.gbcc.org.uk/,1.00E+11,E09000033,Knightsbridge & Belgravia,E05013797,51.49860801,-0.155160323,528153.0125,179354.0033
Great Ormond Street Hospital Archives,Museum and Archives Service Great Ormond Street Ho, ,WC1N 3JH,Camden,https://www.gosh.nhs.uk/about-us/our-history/archives,5090726,E09000007,Holborn & Covent Garden,E05013662,51.52221155,-0.11989817,530533.0114,182041.0033
Green Alliance,4th Floor Victoria Charity Centre ,11 Belgrave Road ,SW1V 1RB,Westminster,https://www.green-alliance.org.uk/,1.00E+11,E09000033,Pimlico North,E05013802,51.49269242,-0.142160353,529072.0128,178719.0022
Greenwich Heritage Centre,Artillery Square Royal Arsenal, ,SE18 4DX,Greenwich,https://www.greenwichheritage.org/visit/greenwich-heritage-centre,10010229615,E09000011,Woolwich Arsenal,E05014092,51.49430805,0.069422401,543754.164,179292.7227
Grenadier Guards Regimental Archives,Wellington Barracks ,Birdcage Walk ,SW1E 6HQ,Westminster,http://grengds.com/static.php?content_id=12,1.00E+11,E09000033,St James's,E05013806,51.4999858,-0.137642078,529365.0125,179538.0023
Guardian News & Media Archive (formerly the Newsroom),Kings Place ,90 York Way ,N1 9GU,Islington,https://www.theguardian.com/gnm-archive,10012790864,E09000019,Caledonian,E05013700,51.53499869,-0.121548397,530382.0121,183460.0034
Guildhall Library Manuscripts Section,40 Northampton Road, ,EC1R 0HB,Islington,https://www.cityoflondon.gov.uk/things-to-do/london-metropolitan-archives/visitor-information/Pages/arch,5300067716,E09000019,Clerkenwell,E05013702,51.52537595,-0.107528493,531382.012,182415.0024
Gunnersbury Park Museum,Gunnersbury Park Popes Lane, ,W3 8LQ,Hounslow,http://www.visitgunnersbury.org/,2.00E+11,E09000018,Chiswick Gunnersbury,E05013609,51.49954349,-0.286321449,519046.9121,179236.8033
Haberdashers' Aske's Federation Trust: Hatcham Colleg,135 Pepys Road, ,SE14 5SF,Lewisham,https://www.haaf.org.uk/,2.00E+11,E09000023,Telegraph Hill,E05013732,51.46768411,-0.042722194,536049.014,176118.0025
Hackney Archives,Dalston CLR James Library and Hackney Archives ,Dalston Square  Dalston Lane,E8 3BQ,Hackney,https://hackney.gov.uk/article/3498/Archives-and-local-history,,E09000012,Dalston,E05009370,51.54613,-0.07417,533635.1979,184783.3368
"Hackney Public Libraries, Stoke Newington District Li", Church Street,Stoke Newington ,N16 OJS,Hackney,https://www.hackney.gov.uk/stoke-newington-library,1.00E+11,E09000012,Clissold,E05009369,51.5616189,-0.082795826,532992.0122,186490.0029
Hammersmith and Fulham Archives and Local History Cen,First Floor Hammersmith Library Shepherd's Bush Ro, ,W6 7AT,Hammersmith and Fulham,https://www.lbhf.gov.uk/libraries/local-studies-and-archives,34027231,E09000013,Brook Green,E05013735,51.49458469,-0.223666292,523409.0117,178789.0015
Hampstead Museum,Burgh House ,New End Square ,NW3 1LT,Camden,https://burghhouse.museumssites.com/,5067420,E09000007,Hampstead Town,E05013659,51.5581809,-0.175067341,526606.0117,185944.0031
Handel House Trust,25 Brook Street, ,W1,Westminster,https://handelhendrix.org/about-us/handel-house-trust/,1.00E+11,E09000033,West End,E05013808,51.51296728,-0.145903845,528755.0119,180967.0028
Haringey Archive Service,Bruce Castle Museum ,Lordship Lane  ,N17 8NU,Haringey,https://www.haringey.gov.uk/libraries-sport-and-leisure/culture-and-entertainment/visiting-haringey/hari,1.00E+11,E09000014,Bruce Castle,E05013587,51.5991501,-0.075440905,533392.0135,190677.001
Harrow Local History Collection,Headstone Manor and Museum Pinner View,Harrow ,HA2 6PX,Harrow,http://www.harrow.gov.uk/info/100009/leisure_and_culture/183/harrow_local_history_centre,2.00E+11,E09000015,Headstone,E05013550,51.59406082,-0.352613082,514209.0116,189642.003
Harrow School Archives,5 High Street,Harrow on the Hill ,HA1 3HP,Harrow,https://www.harrowschool.org.uk/The-Archive,10070266096,E09000015,Harrow on the Hill,E05013547,51.57228208,-0.337383023,515319.0126,187244.0057
Hayward Gallery Library and Archives,Belvedere Road, ,SE1 8XX,Lambeth,https://www.southbankcentre.co.uk/about/what-we-do/archives-collections/hayward-gallery-archive,2.00E+11,E09000022,Waterloo & South Bank,E05014118,51.50613299,-0.115444817,530888.0121,180261.0023
Highgate Cemetery,Swain's Lane Highgate, ,N6 6PJ,Camden,https://highgatecemetery.org/,5090701,E09000007,Highgate,E05013661,51.56691029,-0.146797338,528541.0117,186964.0021
Highgate Literary and Scientific Institution,11 South Grove, ,N6 6BS,Camden,http://www.hlsi.net/,5067464,E09000007,Highgate,E05013661,51.57018179,-0.14839595,528421.0117,187325.0019
Highgate School Archives,Highgate School North Road, ,N6 4AY,Haringey,https://www.highgateschool.org.uk/about/museum-and-archive,1.00E+11,E09000014,Highgate,E05013592,51.57220174,-0.149324045,528351.0118,187548.0017
"Hillingdon Local Studies, Archives and Museums Servic",Local Studies Archives and Museum Service Central ,Uxbridge ,UB8 1HD,Hillingdon,https://www.hillingdon.gov.uk/history,1.00E+11,E09000017,Uxbridge,E05013580,51.54518515,-0.478276716,505618.0083,184018.0016
Historic Royal Palaces Architectural Drawings Archive,Waterloo Block HM Tower of London, ,EC3N 4AB,Tower Hamlets,https://blog.hrp.org.uk/archive/,6086565,E09000030,St Katharine's & Wapping,E05009330,51.50827523,-0.076245514,533602.012,180570.0022
History of Parliament,18 Bloomsbury Square, ,WC1A 2NS,Camden,https://www.historyofparliamentonline.org/,5071361,E09000007,Bloomsbury,E05013653,51.51928304,-0.124025969,530255.011,181708.0029
Hon Soc of Gray's Inn: Archives,8 South Square, ,WC1R 5ET,Camden,https://www.graysinn.org.uk/history/archives,5045865,E09000007,Holborn & Covent Garden,E05013662,51.51927701,-0.112437215,531059.0117,181728.0026
Honourable Artillery Company,Armoury House ,City Road ,EC1Y 2BQ,Islington,https://www.hac.org.uk/home/,5300019875,E09000019,Bunhill,E05013699,51.52301548,-0.088410608,532715.012,182187.0007
Horniman Museum and Gardens,100 London Road, ,SE23 3PQ,Lewisham,https://www.horniman.ac.uk/,1.00E+11,E09000023,Forest Hill,E05013722,51.44113087,-0.060736392,534876.0129,173132.0034
Hounslow and Feltham Local Studies Service,Feltham Library The Centre High Street,Feltham ,TW13 4GU,Hounslow,https://www.hounslow.gov.uk/info/20136/other_library_services/1692/local_history_and_archives,1.00E+11,E09000018,Feltham West,E05013614,51.44636331,-0.411070417,510516.6123,173127.6038
Howard de Walden Estates Ltd,23 Queen Anne Street, ,W1G 9DL,Westminster,https://www.hdwe.co.uk/,1.00E+11,E09000033,Marylebone,E05013801,51.51794832,-0.146984288,528666.0117,181519.0028
HSBC Group Archives,HSBC Holdings plc 8 Canada Square, ,E14 5HQ,Tower Hamlets,https://www.hsbc.com/about-hsbc/company-history/hsbc-archives,6151241,E09000030,Canary Wharf,E05009323,51.50553219,-0.017395336,537694.0112,180374.0037
Huguenot Library,UCL Gower Street, ,WC1E 6BT,Camden,https://www.huguenotsociety.org.uk/library-and-archive.html,5148596,E09000007,Bloomsbury,E05013653,51.52357126,-0.132398065,529662.0113,182170.0028
Humanist Library and Archives,Conway Hall ,25 Red Lion Square ,WC1R 4RL,Camden,https://conwayhall.org.uk/library/,5048256,E09000007,Holborn & Covent Garden,E05013662,51.51979404,-0.118311294,530650.0116,181775.0035
Illustrated London News Picture Library,Mary Evans Picture Library ,59 Tranquil Vale Blackheath,SE3 0BS,Lewisham,https://www.maryevans.com/collect.php,1.00E+11,E09000023,Blackheath,E05013715,51.46670535,0.006662793,539482.0132,176102.002
Imperial College Archives and Corporate Records Unit,Room 455 Sherfield Building Imperial College, ,SW7 2AZ,Westminster,https://www.imperial.ac.uk/admin-services/acru/,10033558317,E09000033,Knightsbridge & Belgravia,E05013797,51.49886271,-0.174888563,526783.0124,179348.0035
Imperial College Healthcare NHS Trust Archives,St Mary's Hospital ,Praed Street ,W2 1NY,Westminster,https://www.imperial.nhs.uk/about-us/who-we-are/our-history,2.00E+11,E09000033,Hyde Park,E05013796,51.51697102,-0.173544641,526826.0122,181364.0034
Imperial War Museum Department of Documents,Lambeth Road, ,SE1 6HZ,Southwark,https://www.iwm.org.uk/collections/documents,2.00E+11,E09000028,St George's,E05011114,51.49600948,-0.108327792,531411.0131,179148.0025
"Imperial War Museum Film Archive, Photographic Archiv",All Saints Building Austral Street, ,SE11 4SJ,Southwark,https://www.iwm.org.uk/collections/film,10000816541,E09000028,St George's,E05011114,51.49452227,-0.106444522,531546.0133,178986.0036
Imperial War Museum: Churchill War Rooms,Clive Steps ,King Charles Street  Westminster,SW1A 2QA,Westminster,https://www.iwm.org.uk/visits/churchill-war-rooms,10033636263,E09000033,St James's,E05013806,51.50217907,-0.129377362,529932.3925,179796.5216
Incorporated Council of Law Reporting for England and,Megarry House 119 Chancery Lane, ,WC2A 1PP,Westminster,http://iclr.co.uk/,10033591744,E09000033,St James's,E05013806,51.51440862,-0.111672912,531126.0113,181188.0031
Inner Temple Archives,Treasurer's Office Inner Temple, ,EC4Y 7HL,City of London,https://www.innertemple.org.uk/who-we-are/history/the-archives/,2.00E+11,E09000001,Farringdon Without,E05009305,51.51279865,-0.109981236,531248.0111,181012.003
Institute for European Environmental Policy,15 Queen Anne's Gate, ,SW1H 9BU,Westminster,https://ieep.eu/,1.00E+11,E09000033,St James's,E05013806,51.50034483,-0.133074443,529681.0125,179586.0019
Institute of Actuaries,Staple Inn Hall High Holborn, ,WC1V 7QJ,City of London,https://www.actuaries.org.uk/,1.00E+11,E09000001,Farringdon Without,E05009305,51.51782273,-0.111371942,531137.0916,181568.1924
Institute of Brewing & Distilling,33 Clarges Street, Mayfair ,W1Y 8EE,Westminster,https://www.ibd.org.uk/home/,1.00E+11,E09000033,West End,E05013808,51.50689961,-0.145487425,528801.0119,180293.0023
Institute of Chartered Accountants in England and Wal,Chartered Accountants' Hall ,Moorgate Place ,EC2R 6EA,City of London,https://www.icaew.com/,2.00E+11,E09000001,Coleman Street,E05009299,51.51639409,-0.088241168,532746.0118,181451.0017
Institute of Contemporary Arts,The Mall ,12 Carlton House Terrace ,SW1Y 5AH,Westminster,https://www.ica.art/,1.00E+11,E09000033,St James's,E05013806,51.50638923,-0.130896308,529815.0123,180262.0026
Institute of Directors,116 & 123 Pall Mall, ,SW1Y 5ED,Westminster,https://www.iod.com/,1.00E+11,E09000033,St James's,E05013806,51.50719177,-0.131598377,529764.0123,180350.002
"Institute of Materials, Minerals and Mining",1 Carlton House Terrace, ,SW1Y 5DB,Westminster,https://www.iom3.org/,1.00E+11,E09000033,St James's,E05013806,51.50569129,-0.133374566,529645.0123,180180.0023
Institute of Physics,76 Portland Place, ,W1B 1NT,Westminster,http://www.iop.org/,1.00E+11,E09000033,West End,E05013808,51.52168834,-0.145217928,528778.0114,181938.0026
Institution of Civil Engineers,One Great George Street, ,SW1P 3AA,Westminster,https://www.ice.org.uk/,1.00E+11,E09000033,St James's,E05013806,51.50110324,-0.128749716,529979.0125,179678.0017
Institution of Engineering and Technology (IET) Archi,Savoy Hill House ,7-10 Savoy Hill ,WC2R 0BU,Westminster,https://www.theiet.org/resources/library/archives/index.cfm,1.00E+11,E09000033,St James's,E05013806,51.51028947,-0.119481331,530596.012,180716.002
Institution of Incorporated Engineers,Savoy Hill House ,Savoy Hill ,WC2R 0BS,Westminster,https://www.theiet.org/membership/profreg/ieng/,1.00E+11,E09000033,St James's,E05013806,51.51028947,-0.119481331,530596.012,180716.002
Institution of Mechanical Engineers Archive,1 Bird Cage Walk, ,SW1H 9JJ,Westminster,https://www.imeche.org/libraries-archive/archive-and-artefacts,10033530502,E09000033,St James's,E05013806,51.50120342,-0.129955923,529895.0125,179687.0025
International Brewers Guild,8 Ely Place Holborn, ,EC1N 6SD,Camden,https://beerandbrewing.com/dictionary/iu1zbv4d6L/,5088098,E09000007,Holborn & Covent Garden,E05013662,51.51830308,-0.10724526,531422.0116,181629.0028
International Fund for Animal Welfare Charitable Trus,87-90 Albert Embankment, ,SE1 7UD,Lambeth,https://www.ifaw.org/united-kingdom/frontpage,1.00E+11,E09000022,Vauxhall,E05014117,51.48796534,-0.123713335,530366.0133,178226.0026
International PEN,9-10 Charterhouse Buildings ,Goswell Road ,EC1M 7AT,Islington,https://pen-international.org/,5300018851,E09000019,Bunhill,E05013699,51.5230092,-0.098530535,532013.0129,182167.9978
IRIE! dance theatre,Moonshot Centre ,Fordham Park  Angus Street,SE14 6LU,Lewisham,https://www.iriedancetheatre.org/,10093394257,E09000023,Deptford,E05013719,51.47785681,-0.035301972,536534.0122,177263.0023
Islington Local History Centre,Finsbury Library,Islington Museum and Local History Ce,EC1V4NB,Islington,https://www.islington.gov.uk/libraries-arts-and-heritage/heritage/local-history-centre,10091003195,E09000019,Clerkenwell,E05013702,51.52648755,-0.104527002,531587.012,182544.0025
James Allen's Girls' School,East Dulwich Grove, ,SE22 8TE,Southwark,https://www.jags.org.uk/,2.00E+11,E09000028,Dulwich Village,E05011100,51.45542039,-0.085528085,533111.572,174675.6417
Japan Society,Swire House ,59 Buckingham Gate ,SW1E 6AJ,Westminster,https://www.japansociety.org.uk/,1.00E+11,E09000033,St James's,E05013806,51.49808833,-0.136509229,529449.013,179329.0028
Jewish Studies Library,University College ,London Gower Street ,WC1E 6BT,Camden,https://www.ucl.ac.uk/library/special-collections/a-z/jewish-library,5148596,E09000007,Bloomsbury,E05013653,51.52357126,-0.132398065,529662.0113,182170.0028
Jews College Library,44a Albert Road, ,NW4 2SJ,Barnet,https://www.lsjs.ac.uk/about-our-library.php,200219174,E09000003,Hendon,E05013643,51.58821378,-0.213739211,523843.7293,189217.5617
Keats House,Keats Grove Hampstead, ,NW3 2RR,Camden,https://www.cityoflondon.gov.uk/things-to-do/keats-house/Pages/default.aspx,5015415,E09000007,Hampstead Town,E05013659,51.55556976,-0.16793018,527108.0117,185666.002
Kensington and Chelsea Libraries and Arts Service,Central Library ,Phillimore Walk ,W8 7RX,Kensington and Chelsea,https://www.rbkc.gov.uk/leisure-and-culture/culture/arts-services,217125485,E09000020,Campden,E05009390,51.50141889,-0.194406095,525421.3322,179598.6625
King Alfred School,Manor Wood North End Road, ,NW11 7HY,Barnet,http://www.kingalfred.org.uk/,200086130,E09000003,Childs Hill,E05013631,51.56967063,-0.184458946,525923.3025,187205.5022
King's College London: St Thomas' House Library,St Thomas' Hospital ,Lambeth Palace Road ,SE1 7EH,Lambeth,https://www.kcl.ac.uk/library/visiting/stthomas.aspx,1.00E+11,E09000022,Waterloo & South Bank,E05014118,51.49948958,-0.118384483,530703.0125,179517.0021
Lambeth Archives,Minet Library ,52 Knatchbull Road ,SE5 9QY,Lambeth,https://www.lambeth.gov.uk/places/lambeth-archives,1.00E+11,E09000022,Myatt's Fields,E05014107,51.47129501,-0.105390235,531686.0113,176405.0017
Landscape Institute,33 Great Portland Street, ,W1W 8QG,Westminster,https://www.landscapeinstitute.org/,1.00E+11,E09000033,West End,E05013808,51.51690058,-0.141578562,529044.0118,181412.0024
Lasa,Watson House,54 Baker Street ,W1U 7BU,Tower Hamlets,http://www.lasa.org.uk/,6002410,E09000030,Spitalfields & Banglatown,E05009333,51.5170911,-0.070958811,533943.012,181560.0029
Latymer Upper School,King Street, ,W6 9LR,Hammersmith and Fulham,http://www.latymer-upper.org/,34004704,E09000013,Ravenscourt,E05013746,51.49273648,-0.237063395,522484.0128,178561.0026
Law Centres Federation,Duchess House,18-19 Warren Street ,W1P 5DB,Camden,http://www.lawcentres.org.uk/,5087095,E09000007,Bloomsbury,E05013653,51.52395509,-0.139575757,529163.0112,182200.0032
Law Society of England and Wales,113 Chancery Lane, ,WC2A 1PL,Westminster,https://www.lawsociety.org.uk/,10033554126,E09000033,St James's,E05013806,51.51495084,-0.111837845,531113.0113,181248.003
Leathersellers Company,15 St Helen's Place, ,EC3A 6DQ,City of London,https://leathersellers.co.uk/,95513684,E09000001,Lime Street,E05009307,51.51500491,-0.081543569,533214.742,181308.6919
Legal Action Group,242 Pentonville Road, ,N1 9UN,Islington,https://www.lag.org.uk/,5300073296,E09000019,Caledonian,E05013700,51.53119215,-0.119701061,530521.0121,183040.0031
Leighton House Museum,12 Holland Park Road, ,W14 8LZ,Kensington and Chelsea,https://www.rbkc.gov.uk/subsites/museums/leightonhousemuseum1.aspx,217039506,E09000020,Holland,E05009397,51.49858782,-0.203095135,524826.0123,179269.0035
Leo Baeck College Library,The Sternberg Centre for Judaism ,80 East End Road ,N3 2SY,Barnet,http://lbc.ac.uk/library-resources/,200033491,E09000003,Finchley Church End,E05013639,51.59527665,-0.189326369,525515.4411,190044.6216
Leprosy Mission International,80 Windmill Road,Brentford ,TW8 0QH,Hounslow,https://www.leprosymission.org/,1.00E+11,E09000018,Brentford West,E05013608,51.48961264,-0.309043989,517495.3148,178095.7985
Lesbian and Gay Christian Movement,Oxford House ,Derbyshire Street ,E2 6HG,Tower Hamlets,https://www.onebodyonefaith.org.uk/about-us/new-era-new-name/,6089004,E09000030,St Peter's,E05009331,51.52636805,-0.061484047,534573.0115,182609.0039
Lewisham Local History and Archives Centre,Lewisham Library ,199-201 Lewisham High Street ,SE13 6LG,Lewisham,https://www.lewisham.gov.uk/inmyarea/history/archives/Pages/default.aspx,10023235063,E09000023,Lewisham Central,E05013727,51.4592745,-0.011657207,538232.0132,175241.0041
LexisNexis Butterworths,Halsbury House,35 Chancery Lane ,WC2A 1EL,City of London,https://store.lexisnexis.co.uk/categories/butterworths-law-books,95500066,E09000001,Farringdon Without,E05009305,51.51631266,-0.111522065,531131.0115,181400.0031
Liberal Judaism archives,Montagu Centre ,21 Maple Street ,W1T 4BE,Camden,https://www.liberaljudaism.org/resources/lj-historical-archive/,5016796,E09000007,Bloomsbury,E05013653,51.52243218,-0.137677393,529299.0112,182034.0033
Library and Museum of Freemasonry,Freemasons' Hall ,60 Great Queen Street ,WC2B 5AZ,Camden,http://freemasonry.london.museum/,5087804,E09000007,Holborn & Covent Garden,E05013662,51.51516268,-0.121110979,530469.0117,181255.0029
Lincoln's Inn Archives,Lincoln's Inn Library ,Lincoln's Inn ,WC2A 3TN,Camden,https://www.lincolnsinn.org.uk/index.php/library/the-inns-archives,5110067,E09000007,Holborn & Covent Garden,E05013662,51.51643182,-0.114457444,530927.0116,181408.0033
Linnean Society of London,Burlington House, Piccadilly ,W1J 0BF,Westminster,https://www.linnean.org/,1.00E+11,E09000033,West End,E05013808,51.50909914,-0.139576037,529205.0122,180548.0025
Livability (Shaftesbury Society),50 Scrutton Street, ,EC2A 4XQ,Hackney,https://livability.org.uk/about-us/history-and-track-record/,1.00E+11,E09000012,Hoxton East & Shoreditch,E05009377,51.52326552,-0.081149086,533218.0117,182228.0017
Live Art Development Agency's Study Room,White Building, Unit 7 Queen's Yard  White Post Lane,E9 5EN,Tower Hamlets,http://www.thisisliveart.co.uk/resources/study-room/,6077530,E09000030,Bow East,E05009319,51.54298591,-0.02211269,537254.0121,184530.003
Living Streets,4th Floor Universal House ,88-94 Wentworth Street ,E1 7SA,Tower Hamlets,https://www.livingstreets.org.uk/,6198476,E09000030,Spitalfields & Banglatown,E05009333,51.51708235,-0.070973594,533942.0121,181559.0028
Lloyd's,One Lime Street, ,EC3M 7HA,City of London,https://www.lloydsbank.com/,1.00E+11,E09000001,Lime Street,E05009307,51.51301401,-0.082257511,533171.0121,181086.0015
Lloyds Banking Group Archives (London),7th floor 155 Bishopsgate, ,EC2M 3UB,City of London,https://www.lloydsbankinggroup.com/our-group/our-heritage/our-archives/,1.00E+11,E09000001,Bishopsgate,E05009292,51.51876949,-0.080069711,533306.0118,181730.0027
Lloyd's Register Foundation Heritage & Education Cent,71 Fenchurch Street, ,EC3M 4BS,City of London,http://www.lrfoundation.org.uk/public_education/HEC-Blogs/,2.00E+11,E09000001,Aldgate,E05009289,51.51250665,-0.078733423,533417.0122,181036.0022
London Borough of Sutton: Archives & Local Studies,Level 2A Central Library ,St Nicholas Way ,SM1 1EA,Sutton,https://arena.yourlondonlibrary.net/web/sutton/sutton-archives,5870113864,E09000029,Sutton Central,E05013765,51.36207339,-0.195154616,525751.0114,164102.0017
London Business School Library,Sussex Place , ,NW1 4SA,Westminster,https://www.london.edu/experience/campus-services/library,1.00E+11,E09000033,Regent's Park,E05013805,51.52658256,-0.161352782,527645.0122,182454.0028
London Library,14 St James Square, ,SW1Y 4LG,Westminster,https://www.londonlibrary.co.uk/,10033543639,E09000033,St James's,E05013806,51.50734035,-0.136981791,529390.0122,180357.002
London Mathematical Society,De Morgan House ,57-58 Russell Square ,WC1B 4HS,Camden,https://www.lms.ac.uk/,5083525,E09000007,Bloomsbury,E05013653,51.52117742,-0.124394946,530224.0106,181918.0039
London Metropolitan Archives: City of London,40 Northampton Road, ,EC1R 0HB,Islington,https://www.cityoflondon.gov.uk/things-to-do/london-metropolitan-archives/Pages/default.aspx,5300067716,E09000019,Clerkenwell,E05013702,51.52537595,-0.107528493,531382.012,182415.0024
London Metropolitan University: Trades Union Congress,The Wash Houses ,Old Castle Street ,E1 7NT,Tower Hamlets,https://student.londonmet.ac.uk/library/using-the-library/special-collections/trades-union-congress-libr,,E09000030,Spitalfields & Banglatown,E05009333,51.51596508,-0.07371457,533755.1194,181429.7468
London Museum of Water & Steam,Green Dragon Lane, Brentford ,TW8 0EN,Hounslow,https://www.waterandsteam.org.uk/,1.00E+11,E09000018,Brentford East,E05013607,51.48905549,-0.290517573,518782.9155,178063.698
London School of Theology,Green Lane,Northwood ,HA6 2UW,Hillingdon,https://home.lst.ac.uk/,1.00E+11,E09000017,Northwood,E05013574,51.61294959,-0.431728976,508684.0121,191622.0001
London South Bank University Archives Centre,103 Borough Road , ,SE1 0AA,Southwark,http://www.lsbu.ac.uk/about-us/professional-services/archives-centre,2.00E+11,E09000028,St George's,E05011114,51.49870595,-0.101742556,531860.3223,179459.683
London Transport Museum,Covent Garden, ,WC2E 7BB,Westminster,https://www.ltmuseum.co.uk/,10033620435,E09000033,St James's,E05013806,51.5121249,-0.121221618,530470.0116,180917.0024
London University: Birkbeck College,The Library, Malet Street ,WC1E 7HX,Camden,http://www.bbk.ac.uk/,5108194,E09000007,Bloomsbury,E05013653,51.52189271,-0.130333352,529810.0109,181987.0037
London University: Courtauld Institute of Art,Book Library Courtauld Institute of Art Somerset H,Strand ,WC2R 0RN,Westminster,https://courtauld.ac.uk/,1.00E+11,E09000033,St James's,E05013806,51.51102034,-0.117952415,530700.0119,180800.0022
London University: Goldsmiths Library: Special Collec,Goldsmiths University of London ,New Cross ,SE14 6NW,Lewisham,https://www.gold.ac.uk/library/collections/special-collections/,1.00E+11,E09000023,Brockley,E05013716,51.47414396,-0.035375199,536540.0126,176850.0019
London University: Heythrop College,Kensington Square, ,W8 5HN,Kensington and Chelsea,http://www.heythrop.ac.uk/,217046014,E09000020,Queen's Gate,E05009401,51.49946248,-0.1902477,525715.3223,179388.2331
London University: Institute for the Study of the Ame,35 Tavistock Square, ,WC1H 9HA,Camden,https://www.ucl.ac.uk/americas/,5155310,E09000007,Bloomsbury,E05013653,51.52484364,-0.129852027,529835.0114,182316.0027
London University: Institute of Advanced Legal Studie,Charles Clore House ,17 Russell Square ,WC1B 5DR,Camden,https://ials.sas.ac.uk/,5087791,E09000007,Bloomsbury,E05013653,51.52248482,-0.127426054,530010.0108,182058.0033
London University: Institute of Archaeology,University of London ,31-34 Gordon Square ,WC1 0PY,Camden,https://www.ucl.ac.uk/archaeology,5087993,E09000007,Bloomsbury,E05013653,51.52491681,-0.131622188,529712.0115,182321.0029
London University: Institute of Education,Newsam Library and Archives ,20 Bedford Way ,WC1H 0AL,Camden,https://www.ucl.ac.uk/ioe/,5087943,E09000007,Bloomsbury,E05013653,51.52297862,-0.127939155,529973.0109,182112.0036
London University: London School of Economics Library,Lionel Robbins Building ,10 Portugal Street ,WC2A 2HD,Westminster,http://www.lse.ac.uk/library/using-the-library/access-archives-and-special-collections,1.00E+11,E09000033,St James's,E05013806,51.51483618,-0.11589258,530832.0116,181228.0031
"London University: London School of Economics, The Wo",London School of Economics and Political Science ,10 Portugal Street ,WC2A 2HD,Westminster,http://www.lse.ac.uk/Library/Collections/Collection-highlights/The-Womens-Library,10033572083,E09000033,St James's,E05013806,51.51483618,-0.11589258,530832.0116,181228.0031
London University: London School of Hygiene and Tropi,Keppel Street, ,WC1E 7HT,Camden,https://www.lshtm.ac.uk/,5090709,E09000007,Bloomsbury,E05013653,51.52092672,-0.130661227,529790.0108,181879.0037
"London University: Queen Mary, University of London",Archives Mile End Library Queen Mary University of,328 Mile End Road ,E1 4NS,Tower Hamlets,https://www.qmul.ac.uk/,6164839,E09000030,Bethnal Green,E05009317,51.52418885,-0.039664421,536093.012,182407.0036
London University: School of Oriental and African Stu,Archives & Special Collections ,10 Thornhaugh Street Russell Square ,WC1H 0XG,Camden,https://www.soas.ac.uk/,5086881,E09000007,Bloomsbury,E05013653,51.52235179,-0.129233406,529885.0108,182040.0037
London University: Senate House Library/ Institute of,Senate House Malet Street, ,WC1E 7HU,Camden,https://www.senatehouselibrary.ac.uk/,5016035,E09000007,Bloomsbury,E05013653,51.52064362,-0.128698024,529927.0108,181851.0033
London University: UCL School of Slavonic and East Eu,16 Taviton Street, ,WC1H 0BW,Camden,https://www.ucl.ac.uk/ssees/,5007450,E09000007,Bloomsbury,E05013653,51.52532328,-0.131735287,529703.0115,182366.0024
London University: University College Department of E,Petrie Museum of Egyptian Archaeology University C,Gower Street ,WC1E 6BT,Camden,https://www.ucl.ac.uk/library/subject-support/guides/egyptology,5148596,E09000007,Bloomsbury,E05013653,51.52357126,-0.132398065,529662.0113,182170.0028
London University: University College London (UCL) Sp,Library Services University College London ,Gower St ,WC1E 6BT,Camden,https://www.ucl.ac.uk/library/special-collections,5157421,E09000007,Bloomsbury,E05013653,51.5248441,-0.13326858,529598.0115,182310.0031
London University: Warburg Institute,Woburn Square, ,WC1H 0AB,Camden,https://warburg.sas.ac.uk/,5090639,E09000007,Bloomsbury,E05013653,51.52327321,-0.130622753,529786.0111,182140.0036
London Wildlife Trust,Skyline House ,200 Union Street ,SE1 0LX,Southwark,https://www.wildlondon.org.uk/,2.00E+11,E09000028,Borough & Bankside,E05011095,51.5038528,-0.101749191,531845.0114,180032.0029
Madame Tussaud's Ltd,Marylebone Road, ,NW1 5LR,Westminster,https://www.madametussauds.com/?utm_campaign=coukredirect,1.00E+11,E09000033,Regent's Park,E05013805,51.5229671,-0.155026018,528094.0119,182063.0034
Magistrates Association,28 Fitzroy Square, ,W1T 6DD,Camden,https://www.magistrates-association.org.uk/,5008666,E09000007,Bloomsbury,E05013653,51.52259699,-0.140697861,529089.0111,182047.0027
Marine Society,202 Lambeth Road, ,SE1 7JW,Lambeth,https://www.marine-society.org/,1.00E+11,E09000022,Waterloo & South Bank,E05014118,51.49554589,-0.116400357,530852.0133,179082.0029
Marx Memorial Library,37a Clerkenwell Green, ,EC1R 0DU,Islington,https://www.marx-memorial-library.org/,5300021024,E09000019,Clerkenwell,E05013702,51.52296494,-0.105797743,531509.0119,182150.0024
Mary Ward Centre,42 Queen Square, ,WC1N 3AQ,Camden,http://www.marywardcentre.ac.uk/,5045366,E09000007,Holborn & Covent Garden,E05013662,51.52086587,-0.12178428,530406.011,181888.0035
Marylebone Cricket Club Library,Lord's Cricket Ground ,St John's Wood ,NW8 8QN,Westminster,https://www.lords.org/lords/tours-and-museum/museum/our-departments/mcc-library/,1.00E+11,E09000033,Abbey Road,E05013792,51.52943247,-0.17281502,526842.0127,182751.0035
Matt's Gallery,6 Charles Clowes Walk,Nine Elms ,SW11 7AN,Westminster,https://www.mattsgallery.org/,,E09000033,Pimlico South,E05013803,51.48718187,-0.132063339,529788.5496,178124.0575
Medical Defence Union,230 Blackfriars Road, ,SE1 8PJ,Southwark,https://www.themdu.com/,10000809744,E09000028,Borough & Bankside,E05011095,51.50584065,-0.104000959,531683.0115,180249.0021
Medical Research Council,20 Park Crescent, ,W1N 1AL,Westminster,https://mrc.ukri.org/,1.00E+11,E09000033,Marylebone,E05013801,51.52278226,-0.147292501,528631.0116,182056.0025
Mencap,123 Golden Lane, ,EC1Y 0RT,Islington,https://www.mencap.org.uk/,5300036426,E09000019,Bunhill,E05013699,51.52387977,-0.095654351,532210.013,182269.9973
Mental Health Foundation,Colechurch House ,1 London Bridge Walk ,SE1 2SX,Southwark,https://www.mentalhealth.org.uk/,10000813676,E09000028,Borough & Bankside,E05011095,51.50844093,-0.10672454,531486.5216,180533.2622
Mercers' Company Archives,Mercers' Hall ,Ironmonger Lane ,EC2V 8HE,City of London,https://www.mercers.co.uk/archive,95511261,E09000001,Cheap,E05009298,51.51416686,-0.091735853,532510.012,181197.0002
Middle Temple Library,Middle Temple Lane, ,EC4Y 9BT,City of London,https://www.middletemple.org.uk/library-and-archive/library,2.00E+11,E09000001,Farringdon Without,E05009305,51.51189777,-0.110998545,531180.0111,180910.0028
Middlesex University: Museum of Domestic Design & Arc,9 Boulevard Drive ,Beaufort Park Colindale,NW9 5HF,Barnet,https://moda.mdx.ac.uk/,200141126,E09000003,Colindale South,E05013633,51.59604884,-0.241636786,521890.2346,190042.0159
Middlesex University: Sheppard Library,The Burroughs, ,NW4 4BT,Barnet,https://unihub.mdx.ac.uk/study/library/library-services/library-opening-hours,200153196,E09000003,Hendon,E05013643,51.5904557,-0.22959233,522739.4882,189440.1485
Mind for Better Mental Health,15-19 Broadway ,Stratford ,E15 4BQ,Newham,https://www.mind.org.uk/,10008984107,E09000025,Stratford,E05013924,51.54023648,0.001086514,538871.0114,184268.0012
Minority Rights Group,Minority Rights Group International ,54 Commercial Street London ,E1 6LT,Tower Hamlets,https://minorityrights.org/,6715453,E09000030,Spitalfields & Banglatown,E05009333,51.51744496,-0.073336543,533777.012,181595.0025
Mission to Seafarers,St Michael Paternoster ,Royal College Hill ,EC4R 2RL,City of London,https://www.missiontoseafarers.org/,2.00E+11,E09000001,Dowgate,E05009303,51.51118565,-0.092004606,532500.012,180865.0014
Moravian Church Archive and Library,Moravian Church House 5-7 Muswell Hill, ,N10 3TJ,Haringey,http://www.moravian.org.uk/index.php/church-house/church-archives,10003979924,E09000014,Muswell Hill,E05013594,51.58751364,-0.134410693,529341.0118,189277.003
Mothers' Union,Mary Sumner House ,24 Tufton Street ,SW1P 3RB,Westminster,https://www.mothersunion.org/,1.00E+11,E09000033,St James's,E05013806,51.49665845,-0.128600476,530002.0134,179184.0021
Movement for Christian Democracy,Mayflower Family Centre ,Vincent Street ,E16 1LZ,Newham,https://www.britannica.com/topic/Christian-democracy,10008988833,E09000025,Canning Town South,E05013907,51.51524569,0.013149883,539784.0111,181512.0033
Museum of London Docklands - Port and River Archive,No 1 Warehouse ,West India Quay  Hertsmere Road,E14 4AL,Tower Hamlets,https://www.museumoflondon.org.uk/collections/access-and-enquiries/port-london-authority-archive,6650052,E09000030,Canary Wharf,E05009323,51.50769779,-0.023152002,537288.0113,180604.0013
Museum of London Library,150 London Wall, ,EC2Y 5HN,City of London,https://www.museumoflondon.org.uk/collections,2.00E+11,E09000001,Aldersgate,E05009288,51.5177984,-0.096066695,532199.0125,181592.9986
Museum of London: London Archaeological Archive and R,Mortimer Wheeler House ,46 Eagle Wharf Road ,N1 7ED,Hackney,https://www.museumoflondon.org.uk/collections/other-collection-databases-and-libraries/museum-london-arc,1.00E+11,E09000012,Hoxton West,E05009378,51.53473431,-0.090702331,532522.0127,183485.9999
Museum of Order of St John,St John's Gate ,St John's Lane ,EC1M 4DA,Islington,http://museumstjohn.org.uk/,5300085644,E09000019,Clerkenwell,E05013702,51.52192262,-0.10251114,531740.0118,182040.0016
Musicians Union,National Office ,60/62 Clapham Road ,SW9 0JJ,Lambeth,https://www.musiciansunion.org.uk/,2.00E+11,E09000022,Oval,E05014108,51.47964474,-0.115154428,530984.0116,177316.0022
National Air Traffic Services Ltd,Heathrow House Bath Road, ,TW5 9AT,Hounslow,https://www.nats.aero/,10091691519,E09000018,Cranford,E05013612,51.48044982,-0.412330588,510346.9121,176916.306
National Army Museum Templer Study Centre,Royal Hospital Road Chelsea, ,SW3 4HT,Kensington and Chelsea,https://www.nam.ac.uk/collections/templer-study-centre,217075883,E09000020,Royal Hospital,E05009403,51.48622897,-0.160337437,527828.286,177968.3948
"National Art Library, Victoria & Albert Museum",Cromwell Road, ,SW7 2RL,Kensington and Chelsea,https://www.vam.ac.uk/info/national-art-library/,217108016,E09000020,Brompton & Hans Town,E05009389,51.49690228,-0.172098033,526982.1428,179134.8334
National Association of Citizens Advice Bureaux,Citizens Advice 3rd Floor North 200 Aldersgate Str, ,EC1A 4HD,City of London,https://www.ncsyes.co.uk/?gclid=EAIaIQobChMI3NOB97zo3gIVZJJbCh2ijwJVEAAYASAAEgJzafD_BwE&gclsrc=aw.ds,95511288,E09000001,Aldersgate,E05009288,51.51747107,-0.097507308,532100.0126,181553.9983
National Association of University and College Union,Carlow Street, ,NW1 7LH,Camden,https://www.ucu.org.uk/,5107848,E09000007,Regent's Park,E05013668,51.53514553,-0.139797015,529116.0116,183444.0029
National Campaign for Nursery Education,Tachbrook Nursery School ,Aylesford Street ,SW1V 3RN,Westminster,https://www.nurseryworld.co.uk/nursery-world/news/1090442/national-campaign-real-nursery-education,1.00E+11,E09000033,Pimlico South,E05013803,51.48659594,-0.132570322,529755.0146,178058.0036
National Childbirth Trust,Alexandra House ,Oldham Terrace ,W3 6NH,Ealing,https://www.nct.org.uk/,12102911,E09000009,South Acton,E05013536,51.50593843,-0.269739395,520181.0119,179975.0024
National Council for Housing and Planning,41 Botolph Lane, ,EC3 8DL,City of London,https://www.rtpi.org.uk/,2.00E+11,E09000001,Bridge,E05009294,51.51031626,-0.084460529,533026.012,180782.0023
National Council of Building Materials Producers,The Building Centre ,26 Store Street ,WC1E 7BT,Camden,https://www.constructionproducts.org.uk/,5088670,E09000007,Bloomsbury,E05013653,51.51965513,-0.131563761,529731.0112,181736.0025
National Federation of Women's Institutes,104 New Kings Road, ,SW6 4LY,Hammersmith and Fulham,https://www.thewi.org.uk/,34044214,E09000013,Fulham Town,E05013739,51.47223329,-0.203871557,524844.012,176337.0025
National Gallery Research Centre,The National Gallery Trafalgar Square, ,WC2N 5DN,Westminster,https://www.nationalgallery.org.uk/research/research-centre,1.00E+11,E09000033,St James's,E05013806,51.50909835,-0.127658197,530032.0121,180569.0025
National Housing Federation,Lion Court ,25 Procter Street ,WC1V 6NY,Camden,https://www.housing.org.uk/,5135098,E09000007,Holborn & Covent Garden,E05013662,51.51844721,-0.119563184,530567.0116,181623.0029
National Institute of Economic and Social Research,2 Dean Trench Street Smith Square, ,SW1P 3HE,Westminster,https://www.niesr.ac.uk/,10033533249,E09000033,St James's,E05013806,51.49570564,-0.128063247,530042.0136,179079.0023
National Liberal Club,Whitehall Place, ,SW1A 2HE,Westminster,http://www.nlc.org.uk/,10033570113,E09000033,St James's,E05013806,51.50604245,-0.123820779,530307.0124,180236.0022
National Maritime Museum: The Caird Library and Archi,Park Row ,Romney Road  ,SE10 9NF,Greenwich,https://www.rmg.co.uk/research-collections/caird-library,10010243516,E09000011,Greenwich Park,E05014081,51.48094088,-0.005215641,538613.8303,177662.454
National Osteopathic Archive,c/o British School of Osteopathy ,275 Borough High Street ,SE1 1JE,Southwark,https://www.uco.ac.uk/,2.00E+11,E09000028,Chaucer,E05011098,51.50008115,-0.094312879,532372.0114,179626.0032
National Portrait Gallery,Heinz Archive and Library St Martin's Place, ,WC2H 0HE,Westminster,https://www.npg.org.uk/,1.00E+11,E09000033,St James's,E05013806,51.5093988,-0.128452893,529976.0121,180601.0025
National Secular Society,25 Red Lion Square, ,WC1R 4RL,Camden,https://www.secularism.org.uk/,5048256,E09000007,Holborn & Covent Garden,E05013662,51.51979404,-0.118311294,530650.0116,181775.0035
National Society for the Prevention of Cruelty to Chi,Library and Information Service Weston House 42 Cu, ,EC2A 3NH,Hackney,https://www.nspcc.org.uk/,1.00E+11,E09000012,Hoxton East & Shoreditch,E05009377,51.52340481,-0.080126923,533288.5117,182245.3527
National Theatre Archive,NT Studio 83-101, The Cut ,SE1 8LL,Lambeth,https://www.nationaltheatre.org.uk/about-the-national-theatre/archive,2.00E+11,E09000022,Waterloo & South Bank,E05014118,51.50233994,-0.10885803,531356.0118,179851.0023
Natural History Museum Library and Archives,Cromwell Road ,South Kensington ,SW7 5BD,Kensington and Chelsea,http://www.nhm.ac.uk/our-science/departments-and-staff/library-and-archives.html,217110763,E09000020,Brompton & Hans Town,E05009389,51.49656438,-0.176867722,526652.0128,179089.0029
Newham Archive and Local Studies Library,Stratford Library ,3 The Grove ,E15 1EL,Newham,https://www.newham.gov.uk/Pages/Services/Local-history-and-archives.aspx,46101428,E09000025,Stratford,E05013924,51.54277052,0.004355963,539090.0106,184556.0006
Newman Association,20-22 Bedford Row, ,WC1R 4JS,Camden,http://www.newman.org.uk/,5088364,E09000007,Holborn & Covent Garden,E05013662,51.52051425,-0.116119411,530800.0116,181859.003
News UK Archive,1 London Bridge Street, ,SE1 9GF,Southwark,https://www.britishnewspaperarchive.co.uk/,10090747871,E09000028,London Bridge & West Bermondsey,E05011104,51.50542632,-0.087719169,532814.1117,180232.3218
North London Collegiate School,Canons Drive ,Edgware ,HA8 7RJ,Harrow,https://www.nlcs.org.uk/,2.00E+11,E09000015,Canons,E05013543,51.61417689,-0.2947011,518168.0031,191971.0006
Nursing and Midwifery Council,23 Portland Place, ,W1B 1PZ,Westminster,https://www.nmc.org.uk/,1.00E+11,E09000033,Marylebone,E05013801,51.51956538,-0.145174496,528787.0115,181702.0028
"Offer, Watermann & Co",11 Langton Street, ,SW10 OJL,Kensington and Chelsea,https://www.waterman.co.uk/,217051629,E09000020,Stanley,E05009405,51.48229148,-0.180821618,526417.0121,177495.0027
Orleans House Gallery,Riverside, ,TW1 3DJ,Richmond upon Thames,https://www.orleanshousegallery.org/,1.00E+11,E09000027,Twickenham Riverside,E05013789,51.44733169,-0.319072216,516907.0121,173378.0027
Palestine Exploration Fund,2 Hinde Mews Marylebone Lane, ,W1U 2AA,Westminster,https://www.pef.org.uk/,1.00E+11,E09000033,Marylebone,E05013801,51.51676904,-0.150894955,528398.0117,181381.0028
Parliamentary Archives,Houses of Parliament, ,SW1A 0PW,Westminster,https://www.parliament.uk/business/publications/parliamentary-archives/,10033540874,E09000033,St James's,E05013806,51.49984153,-0.124637491,530268.0126,179545.0023
Paul Mellon Centre for Studies in British Art,16 Bedford Square, ,WC1B 3JA,Camden,https://www.paul-mellon-centre.ac.uk/,5059068,E09000007,Bloomsbury,E05013653,51.51957157,-0.130269899,529821.0111,181729.0029
Plastics Historical Society,Institute of Materials,Minerals and Mining 1 Carlton House T,SW1Y 5DB,Westminster,http://plastiquarian.com/,1.00E+11,E09000033,St James's,E05013806,51.50569129,-0.133374566,529645.0123,180180.0023
Polish Library POSK,Polish Social and Cultural Centre ,238-246 King Street ,W6 0RF,Hammersmith and Fulham,http://www.posk.org/c5/en/library/about-library/,34006639,E09000013,Ravenscourt,E05013746,51.49351545,-0.237436695,522456.0127,178647.0022
Prison Reform Trust,15 Northburgh Street, ,EC1V 0JR,Islington,http://www.prisonreformtrust.org.uk/,5300067920,E09000019,Bunhill,E05013699,51.52385619,-0.100297203,531888.0122,182259.0013
Prospect,Prospect House ,75-79 York Street ,SE1 7AQ,Lambeth,https://www.prospect.org.uk/,10023851808,E09000022,Waterloo & South Bank,E05014118,51.50217833,-0.116329069,530837.9722,179819.6619
Prudential Group Archives,Prudential plc Laurence Pountney Hill, ,EC4R 0HH,City of London,https://www.prudential.co.uk/about-us/our-history/our-archives,95503633,E09000001,Dowgate,E05009303,51.51039098,-0.089040241,532708.0118,180782.0016
"Queen Mary's Hospital, Roehampton",Health Service Library Roehampton, ,SW15 5PN,Wandsworth,https://www.nhs.uk/Services/hospitals/Overview/DefaultView.aspx?id=29686,121052762,E09000032,Roehampton,E05014017,51.45554949,-0.241705797,522261.0121,174418.0023
Radio Centre,77 Shaftesbury Avenue , ,W1D 5DU,Westminster,https://www.radiocentre.org/,10033570247,E09000033,West End,E05013808,51.51256293,-0.131191151,529777.0119,180948.0021
Railfuture,207 The Colourworks ,2 Abbot Street ,E8 3DP,Hackney,https://www.railfuture.org.uk/Welcome+to+Railfuture,10008240634,E09000012,Dalston,E05009370,51.54712954,-0.074981487,533576.0087,184893.0062
Rambert Dance Company Archives,99 Upper Ground, ,SE1 9PP,Lambeth,http://www.rambert.org.uk/explore/rambert-archive/,1.00E+11,E09000022,Waterloo & South Bank,E05014118,51.50617404,-0.113523269,531021.2419,180269.0021
Ramblers Association,2nd Floor Camelford House ,87-90 Albert Embankment ,SE1 7TW,Lambeth,https://www.ramblers.org.uk/,1.00E+11,E09000022,Vauxhall,E05014117,51.48796534,-0.123713335,530366.0133,178226.0026
Reform Club,104 Pall Mall, ,SW1Y 5EW,Westminster,https://www.reformclub.com/,1.00E+11,E09000033,St James's,E05013806,51.50660955,-0.13343789,529638.0123,180282.0017
Religious Society of Friends Library,Friends House ,173-177 Euston Road ,NW1 2BJ,Camden,http://www.quaker.org.uk/resources/library,5085921,E09000007,Bloomsbury,E05013653,51.5262991,-0.132589142,529641.0116,182473.0029
Reuters Archive,Thomson Reuters ,30 South Colonnade  Canary Wharf,E14 5EP,Tower Hamlets,https://reuters.screenocean.com/,6155377,E09000030,Canary Wharf,E05009323,51.50435142,-0.020429416,537487.0116,180237.0022
Rogers Stirk Harbour + Partners,Thames Wharf ,Rainville Road ,W6 9HA,Hammersmith and Fulham,https://www.rsh-p.com/,34024755,E09000013,Fulham Reach,E05013738,51.48362317,-0.224294009,523395.0129,177569.0015
Royal Academy of Arts,Burlington House ,Piccadilly ,W1J 0BD,Westminster,https://www.royalacademy.org.uk/,1.00E+11,E09000033,West End,E05013808,51.50909914,-0.139576037,529205.0122,180548.0025
Royal Academy of Dance: Philip Richardson Library,36 Battersea Square, ,SW11 3RA,Wandsworth,https://www.royalacademyofdance.org/more/library,1.00E+11,E09000032,St Mary's,E05014018,51.47430671,-0.17507667,526838.0122,176617.0023
Royal Academy of Dramatic Art,18-22 Chenies Street, ,WC1E 7EX,Camden,https://www.rada.ac.uk/,5136140,E09000007,Bloomsbury,E05013653,51.52088928,-0.13226279,529679.0109,181872.0036
Royal Academy of Music Library,Marylebone Road, ,NW1 5HT,Westminster,https://www.ram.ac.uk/museum/library,10033538190,E09000033,Regent's Park,E05013805,51.52349886,-0.151674537,528325.0119,182128.0027
Royal African Society,School of Oriental and African Studies,Thornhaugh Street Russell Square,WC1H 0XG,Camden,http://www.royalafricansociety.org/,5086881,E09000007,Bloomsbury,E05013653,51.52235179,-0.129233406,529885.0108,182040.0037
"Royal Air Force Museum, Department of Research and In",Grahame Park Way, ,NW9 5LL,Barnet,https://www.rafmuseum.org.uk/research/research-enquiries.aspx,200049886,E09000003,Colindale North,E05013632,51.59894703,-0.238163901,522123.0071,190370.0957
Royal Albert Hall Archive,Kensington Gore, ,SW7 2AP,Westminster,https://www.royalalberthall.com/about-the-hall/our-history/,1.00E+11,E09000033,Knightsbridge & Belgravia,E05013797,51.50126863,-0.17751559,526594.0121,179611.0029
Royal Anglo-Belgian Club,60 Knightsbridge, ,SW1X 7LF,Westminster,http://www.anglobelgiansociety.com/,1.00E+11,E09000033,Knightsbridge & Belgravia,E05013797,51.50247195,-0.158981047,527877.0121,179777.0024
Royal Anthropological Institute of Great Britain and ,50 Fitzroy Street, ,W1T 5BT,Camden,https://www.therai.org.uk/,5088048,E09000007,Bloomsbury,E05013653,51.52384191,-0.139811022,529147.0112,182187.0026
"Royal Armouries Library, Tower of London",The Library,Royal Armouries HM Tower of London,EC3N 4AB,Tower Hamlets,https://royalarmouries.org/,6086565,E09000030,St Katharine's & Wapping,E05009330,51.50827523,-0.076245514,533602.012,180570.0022
Royal Asiatic Society,14 Stephenson Way, ,NW1 2HD,Camden,https://royalasiaticsociety.org/,5087912,E09000007,Regent's Park,E05013668,51.52650623,-0.135435119,529443.0115,182491.0025
Royal Astronomical Society Library,Burlington House ,Piccadilly ,W1V 0BQ,Westminster,https://ras.ac.uk/library,1.00E+11,E09000033,West End,E05013808,51.50909914,-0.139576037,529205.0122,180548.0025
Royal Automobile Club,89 Pall Mall, ,SW1Y 5HS,Westminster,https://www.royalautomobileclub.co.uk/,1.00E+11,E09000033,St James's,E05013806,51.50592662,-0.135166189,529520.0123,180203.0021
Royal British Legion,199 Borough High Street, ,SE1 1AA,Southwark,https://www.britishlegion.org.uk/,2.00E+11,E09000028,Chaucer,E05011098,51.50216782,-0.092122101,532518.0113,179862.0016
Royal British Nurses Association,The Princess Royal House TA Centre ,Stonecott Hill  London Road,SM3 9HG,Merton,http://www.rbna.org.uk/,48085285,E09000024,Lower Morden,E05013819,51.38293674,-0.215506154,524277.7917,166387.373
Royal British Society of Sculptors,108 Old Brompton Road, ,SW7 3RA,Kensington and Chelsea,https://sculptors.org.uk/,217060814,E09000020,Courtfield,E05009393,51.49173139,-0.179509541,526482.0125,178547.0035
Royal College of Anaesthetists,35 Red Lion Square, ,WC1R 4SG,Camden,https://www.rcoa.ac.uk/,5059115,E09000007,Holborn & Covent Garden,E05013662,51.51943761,-0.119637687,530559.0115,181733.0034
Royal College of Art,Kensington Gore, ,SW7 2EU,Westminster,https://www.rca.ac.uk/,1.00E+11,E09000033,Knightsbridge & Belgravia,E05013797,51.50135507,-0.178448688,526529.0121,179619.0033
Royal College of General Practitioners,30 Euston Square, ,NW1 2FB,Camden,http://www.rcgp.org.uk/,5164098,E09000007,Regent's Park,E05013668,51.52653977,-0.134150684,529532.0115,182497.0029
Royal College of Midwives Archives,15 Mansfield Street, ,W1G 9NH,Westminster,https://www.rcm.org.uk/news-views-and-analysis/news/midwives-archive,1.00E+11,E09000033,Marylebone,E05013801,51.51936074,-0.146451262,528699.0116,181677.0024
Royal College of Music,Prince Consort Road, ,SW7 2BS,Westminster,https://www.rcm.ac.uk/,1.00E+11,E09000033,Knightsbridge & Belgravia,E05013797,51.4992805,-0.176888956,526643.0124,179391.0028
Royal College of Obstetricians and Gynaecologists,Information Services ,27 Sussex Place Regent's Park ,NW1 4RG,Westminster,https://www.rcog.org.uk/,10033637999,E09000033,Regent's Park,E05013805,51.52680999,-0.162093274,527593.0123,182478.0031
Royal College of Paediatrics and Child Health,5-11 Theobalds Road, ,WC1X 8SH,Camden,https://www.rcpch.ac.uk/,5088266,E09000007,Holborn & Covent Garden,E05013662,51.52071748,-0.115894802,530815.0116,181882.0034
Royal College of Pathologists,2 Carlton House Terrace, ,SW1Y 5AF,Westminster,https://www.rcpath.org/,10033604994,E09000033,St James's,E05013806,51.50580651,-0.133268985,529652.0123,180193.0017
Royal College of Physicians of London,11 St Andrews Place ,Regent's Park ,NW1 4LE,Camden,https://www.rcplondon.ac.uk/,5069347,E09000007,Regent's Park,E05013668,51.52574929,-0.144980746,528783.0115,182390.0028
Royal College of Psychiatrists,21 Prescot Street, ,E1 8BB,Tower Hamlets,https://www.rcpsych.ac.uk/,6193878,E09000030,Whitechapel,E05009336,51.51141648,-0.071098355,533949.9721,180928.723
Royal College of Surgeons of England,35-43 Lincoln's Inn Fields, ,WC2A 3PE,Westminster,https://www.rcseng.ac.uk/,1.00E+11,E09000033,St James's,E05013806,51.51528552,-0.11587403,530832.0116,181278.0031
Royal College of Veterinary Surgeons Trust,Belgravia House ,62-64 Horseferry Road ,SW1P 2AF,Westminster,https://www.rcvs.org.uk/home/,1.00E+11,E09000033,St James's,E05013806,51.49497311,-0.12780514,530062.0138,178998.0025
Royal Commission for the Exhibition of 1851,Sherfield Building,Imperial College ,SW7 2AZ,Westminster,https://www.royalcommission1851.org/,10033539795,E09000033,Knightsbridge & Belgravia,E05013797,51.49874348,-0.177630777,526593.0124,179330.0033
Royal Commonwealth Ex-Services League,Haig House,199 Borough High Street ,SE1 1AA,Southwark,http://www.commonwealthveterans.org.uk/,2.00E+11,E09000028,Chaucer,E05011098,51.50196215,-0.091640797,532552.0113,179840.0016
Royal Free Hospital Medical Library,Royal Free Hospital ,Rowland Hill Street ,NW3 2PF,Camden,https://www.ucl.ac.uk/library/libraries-and-study-spaces/royal-free-hospital-medical-library-ucl-library,5155897,E09000007,Gospel Oak,E05013658,51.55298126,-0.166288788,527229.012,185381.0023
Royal Fusiliers Museum,HM Tower of London, ,EC3N 4AB,Tower Hamlets,https://www.fusiliermuseumlondon.org/home,6086845,E09000030,St Katharine's & Wapping,E05009330,51.50839276,-0.075188563,533675.0119,180585.002
Royal Geographical Society,Foyle Reading Room Royal Geographical Society (wit,1 Kensington Gore ,SW7 2AR,Westminster,https://www.rgs.org/,10033599795,E09000033,Knightsbridge & Belgravia,E05013797,51.50150309,-0.175244098,526751.0121,179641.0026
Royal Horticultural Society Lindley Libraries,Lindley Library, 80 Vincent Square ,SW1P 2PE,Westminster,https://www.rhs.org.uk/education-learning/libraries-at-rhs/visit-the-libraries/lindley-library-london,1.00E+11,E09000033,Vincent Square,E05013807,51.49436107,-0.134543574,529596.014,178918.003
Royal Humane Society,Brettenham House Lancaster Place, ,WC2E 7EP,Westminster,https://www.royalhumanesociety.org.uk/,10033537234,E09000033,St James's,E05013806,51.51055883,-0.118893777,530636.0119,180747.0027
Royal Institute of British Architects,British Architectural Library Drawings and Archive,Cromwell Road ,SW7 2RL,Kensington and Chelsea,https://www.architecture.com/,217108016,E09000020,Brompton & Hans Town,E05009389,51.49690228,-0.172098033,526982.1428,179134.8334
Royal Institute of International Affairs,Chatham House ,10 St James's Square ,SW1Y 4LE,Westminster,https://www.chathamhouse.org/,10033543661,E09000033,St James's,E05013806,51.50778656,-0.136199821,529443.0122,180408.0025
Royal Institution of Great Britain,21 Albemarle Street, ,W1S 4BS,Westminster,http://www.rigb.org/,10033528771,E09000033,West End,E05013808,51.50994668,-0.14255344,528996.012,180637.0027
Royal Institution of Naval Architects,8-9 Northumberland Street, ,WC2N 5DA,Westminster,https://www.rina.org.uk/,10033553840,E09000033,St James's,E05013806,51.50743401,-0.125363147,530196.0123,180388.0026
Royal Literary Fund,3 Johnson's Court,Off Fleet Street Temple Avenue,EC4A 3EA,City of London,https://www.rlf.org.uk/,1.00E+11,E09000001,Castle Baynard,E05009297,51.51480141,-0.108702042,531331.0113,181237.0032
Royal London Hospital Archives,Royal London Hospital Archives, 9 Prescot Street ,E1 8PR,Tower Hamlets,https://www.bartshealth.nhs.uk/the-royal-london-hospital-museum-and-archives,6086730,E09000030,Whitechapel,E05009336,51.51160555,-0.070412426,533997.0121,180951.0037
Royal Medical Benevolent Fund,24 Kings Road, ,SW19 8QN,Merton,https://rmbf.org/,48038818,E09000024,Wimbledon Town & Dundonald,E05013829,51.42115468,-0.201544771,525145.0121,170661.0028
Royal National Institute for the Blind,224 Great Portland Street, ,W1N 6AA,Westminster,https://www.rnib.org.uk/,10033589403,E09000033,West End,E05013808,51.51655711,-0.14090071,529092.0119,181375.0025
Royal National Institute for the Deaf,Head Office,1- 3 Highbury Station Road ,N1 1SE,Islington,https://www.actiononhearingloss.org.uk/,5300033046,E09000019,Bunhill,E05013699,51.52448381,-0.088565323,532700.0121,182350.0005
Royal Opera House Collections,Covent Garden, ,WC2E 9DD,Westminster,http://www.rohcollections.org.uk/,10033547198,E09000033,St James's,E05013806,51.51304711,-0.122653705,530368.0116,181017.0032
Royal Over-Seas League,Park Place ,St James's Street ,SW1A 1LR,Westminster,https://www.rosl.org.uk/,10033540380,E09000033,St James's,E05013806,51.50631997,-0.140683595,529136.0121,180237.0027
Royal Society,6-9 Carlton House Terrace, ,SW1Y 5AG,Westminster,https://royalsociety.org/,10033553874,E09000033,St James's,E05013806,51.50587456,-0.132459245,529708.0123,180202.0023
Royal Society for Asian Affairs,25 Eccleston Place, ,SW1W 9NF,Westminster,https://rsaa.org.uk/,1.00E+11,E09000033,Knightsbridge & Belgravia,E05013797,51.49372918,-0.148010279,528663.0132,178824.0026
Royal Society of Chemistry,Burlington House, ,W1V 0BN,Westminster,http://www.rsc.org/,1.00E+11,E09000033,West End,E05013808,51.50909914,-0.139576037,529205.0122,180548.0025
Royal Society of Literature,Somerset House Strand, ,WC2R 1LA,Westminster,https://rsliterature.org/,1.00E+11,E09000033,St James's,E05013806,51.51102034,-0.117952415,530700.0119,180800.0022
Royal Society of Medicine,1 Wimpole Street, ,W1G 0AE,Westminster,https://www.rsm.ac.uk/,10033570133,E09000033,West End,E05013808,51.51600691,-0.147048706,528667.0118,181303.0021
Royal Statistical Society,12 Errol Street, ,EC1Y 8LX,Islington,https://www.rss.org.uk/,5300031223,E09000019,Bunhill,E05013699,51.52252542,-0.090896162,532544.0123,182128
Royal Town Planning Institute,41 Botolph Lane, ,EC3R 8DL,City of London,https://www.rtpi.org.uk/,2.00E+11,E09000001,Bridge,E05009294,51.51031626,-0.084460529,533026.012,180782.0023
"RSA (The Royal Society for the Encouragement of Arts,",8 John Adam Street, ,WC2N 6EZ,Westminster,https://www.thersa.org/about-us/archive-and-history,10033548186,E09000033,St James's,E05013806,51.50939707,-0.122717356,530374.0121,180611.0022
Russo-British Chamber of Commerce,42 Southwark Street, ,SE1 1UN,Southwark,http://www.rbcc.com/,2.00E+11,E09000028,Borough & Bankside,E05011095,51.50498866,-0.093603703,532407.0115,180173.0013
SADAA (South Asian Diaspora Arts Archive),Special Collections Brunel University Library,Uxbridge ,UB8 3PH,Hillingdon,https://sadaa.co.uk/,1.00E+11,E09000017,Colham & Cowley,E05013566,51.53283992,-0.472835336,506024.0137,182653.0034
Saddlers Company,Saddlers Hall ,40 Gutter Lane ,EC2V 6BR,City of London,https://www.saddlersco.co.uk/,95511266,E09000001,Cheap,E05009298,51.51488611,-0.095597259,532240.0122,181269.9989
Sainsbury Archive,Museum in Docklands ,No 1 Warehouse  West India Quay,E14 4AL,Tower Hamlets,https://www.museumoflondon.org.uk/collections/access-and-enquiries/sainsbury-archive,6650052,E09000030,Canary Wharf,E05009323,51.50769779,-0.023152002,537288.0113,180604.0013
Salters Company,Salters' Hall ,4 Fore Street ,EC2Y 5DE,City of London,https://www.salters.co.uk/,2.00E+11,E09000001,Bassishaw,E05009290,51.51823014,-0.092200156,532466.0123,181647.9993
Salvation Army International Heritage Centre,William Booth College ,Champion Park  Denmark Hill,SE5 8BQ,Southwark,https://www.salvationarmy.org.uk/international-heritage-centre,10013524443,E09000028,Champion Hill,E05011097,51.46754133,-0.089275363,532816.0713,176016.6821
Save the Children UK,1 St John's Lane, ,EC1M 4AR,Islington,https://www.savethechildren.org.uk/,10001298735,E09000019,Clerkenwell,E05013702,51.5207651,-0.102112419,531771.0119,181912.0014
Savoy Archives,The Savoy Strand, ,WC2R 0EU,Westminster,https://www.fairmont.com/savoy-london/,1.00E+11,E09000033,St James's,E05013806,51.50994545,-0.119899019,530568.0121,180677.0021
Schroder Archive,31 Gresham Street, ,EC2V 7QA,City of London,https://archiveshub.jisc.ac.uk/contributors/schroderarchive.html,1.00E+11,E09000001,Bassishaw,E05009290,51.5160036,-0.095190298,532265.0123,181394.9994
Science Museum Library (Documentation),Imperial College Road, ,SW7 5NH,Westminster,http://whoami.sciencemuseum.org.uk/about-us/collections-and-research/collections/library-collections/lib,10033558383,E09000033,Knightsbridge & Belgravia,E05013797,51.49832104,-0.178223934,526553.0125,179282.0027
Scope (formerly the Spastics Society),6 Market Road, ,N7 9PW,Islington,https://www.scope.org.uk/history,5300060248,E09000019,Laycock,E05013708,51.54710287,-0.118742027,530542.0117,184811.0015
Scots Guards Regimental Headquarters,Wellington Barracks, Birdcage Walk ,SW1E 6HQ,Westminster,https://scotsguards.org/category/news/rhq/,1.00E+11,E09000033,St James's,E05013806,51.4999858,-0.137642078,529365.0125,179538.0023
Sea Cadet Association,202 Lambeth Road, ,SE1 7JF,Lambeth,https://www.sea-cadets.org/,1.00E+11,E09000022,Waterloo & South Bank,E05014118,51.49554589,-0.116400357,530852.0133,179082.0029
Shaftesbury Young People,The Chapel Royal Victoria Patriotic Building ,John Archer Way ,SW18 3SX,Wandsworth,https://www.shaftesburyyoungpeople.org/,121030969,E09000032,Wandsworth Common,E05014027,51.45349738,-0.17390549,526977.0113,174305.0016
Shakespeare's Globe Library and Archives,21 New Globe Walk ,Bankside ,SE1 9DT,Southwark,https://www.shakespearesglobe.com/education/library-research/library-archive,2.00E+11,E09000028,Borough & Bankside,E05011095,51.50811239,-0.09657156,532192.0118,180515.0004
Sir Arthur Sullivan Society,9 Killieser Avenue, ,SW2 4NN,Lambeth,http://www.sullivansociety.org.uk/,1.00E+11,E09000022,Streatham Hill West & Thornton,E05014114,51.44132765,-0.128128304,530192.0131,173032.0043
Sir John Soane's Museum,13 Lincolns Inn Fields, ,WC2A 3BP,Camden,https://www.soane.org/,5137612,E09000007,Holborn & Covent Garden,E05013662,51.51699356,-0.117518714,530713.0118,181465.0021
Socialist Party of Great Britain,52 Clapham High Street, ,SW4 7UN,Lambeth,https://www.worldsocialism.org/spgb/,2.00E+11,E09000022,Clapham Town,E05014102,51.46389204,-0.132733683,529808.011,175533.0017
Society for Cooperation in Russian and Soviet Studies,320 Brixton Road, ,SW9 6AB,Lambeth,http://www.scrss.org.uk/,1.00E+11,E09000022,Brixton North,E05014096,51.4692849,-0.112903029,531170.0098,176168.0002
Society for Psychical Research,1 Vernon Mews ,West Kensington ,W14 0RL,Hammersmith and Fulham,https://www.spr.ac.uk/,34037603,E09000013,Avonmore,E05013734,51.49391403,-0.210309174,524338.0124,178737.0034
Society for the Protection of Ancient Buildings,37 Spital Square, ,E1 6DY,Tower Hamlets,https://www.spab.org.uk/,6001685,E09000030,Spitalfields & Banglatown,E05009333,51.52020003,-0.078467148,533413.0117,181892.0018
Society of Antiquaries of London,Burlington House ,Piccadilly ,W1J 0BE,Westminster,https://www.sal.org.uk/,1.00E+11,E09000033,West End,E05013808,51.50909914,-0.139576037,529205.0122,180548.0025
Society of Chiropodists and Podiatrists,1 Fellmonger's Path ,176 Tower Bridge Road ,SE1 3LY,Southwark,https://cop.org.uk/,10093339987,E09000028,London Bridge & West Bermondsey,E05011104,51.5004366,-0.078074266,533498.0116,179695.0017
Society of Genealogists,14 Charterhouse Buildings ,Goswell Road ,EC1M 7BA,Islington,http://www.sog.org.uk/,5300018857,E09000019,Bunhill,E05013699,51.5226949,-0.098558049,532012.0129,182132.9976
Society of Motor Manufacturers and Traders Ltd,Forbes House ,Halkin Street ,SW1X 7DS,Westminster,https://www.smmt.co.uk/,1.00E+11,E09000033,Knightsbridge & Belgravia,E05013797,51.50108697,-0.152682785,528318.012,179634.0031
Society of Radiographers,207 Providence Square,Mill Street ,England,Southwark,https://www.sor.org/,2.00E+11,E09000028,North Bermondsey,E05011106,51.50165493,-0.070674501,534008.0111,179844.0033
Society of St John the Evangelist,St Edward's House ,22 Great College Street ,SW1P 3QA,Westminster,https://www.ssje.org/,1.00E+11,E09000033,St James's,E05013806,51.49775347,-0.128469161,530008.0131,179306.0022
Society of the Divine Saviour (Salvatorians),129 Spencer Road,Harrow Weald ,HA3 7BJ,Harrow,http://www.salvatorians.com/,1.00E+11,E09000015,Wealdstone North,E05013561,51.60015881,-0.337389687,515248.0114,190344.003
South London Gallery,65-67 Peckham Road, ,SE5 8UH,Southwark,https://www.southlondongallery.org/,2.00E+11,E09000028,St Giles,E05011115,51.47428603,-0.079749725,533458.0112,176784.0027
Southbank Centre Archive,Royal Festival Hall South Bank Centre ,Belvedere Road ,SE1 8XX,Lambeth,https://www.southbankcentre.co.uk/venues/archive-studio,2.00E+11,E09000022,Waterloo & South Bank,E05014118,51.50576807,-0.116800006,530795.0121,180218.0025
Southwark Local History Library and Archive,John Harvard Library ,211 Borough High Street ,SE1 1JA,Southwark,https://www.southwark.gov.uk/libraries/local-history-library-and-archive/visiting-the-local-history-libr,2.00E+11,E09000028,Chaucer,E05011098,51.50176866,-0.091908241,532534.0113,179818.0017
Spurgeon's College,189 South Norwood Hill, ,SE25 6DJ,Croydon,http://www.spurgeons.ac.uk/,1.00E+11,E09000008,Thornton Heath,E05011486,51.40643282,-0.086202504,533207.0136,169227.001
St Bartholomew's Hospital Archives,North Wing St Bartholomew's Hospital,West Smithfield ,EC1A 7BE,City of London,https://www.bartshealth.nhs.uk/st-bartholomews-museum-and-archives,2.00E+11,E09000001,Farringdon Without,E05009305,51.51775143,-0.100378378,531900.0118,181580.001
St Bride Library,St Bride Institute ,Bride Lane  Fleet Street,EC4Y 8EQ,City of London,https://www.sbf.org.uk/,95511226,E09000001,Castle Baynard,E05009297,51.51349205,-0.105023493,531590.0113,181098.0029
