name,address1,address2,address3,borough_name,website,os_addressbase_uprn,borough_code,ward_2022_name,ward_2022_code,latitude,longitude,easting,northing,fme_feature_type.total_count
Channel 4 Document Archive,124 Horseferry Road, ,SW1P 2TX,Westminster,,100023000000,E09000033,St James's,E05013806,51.4957021,-0.132918466,529705.0137,179070.00229999982,779
ChurchCare Library,Cathedral and Church Buildings Division Archbishop,Church House  27 Great Smith Street,SW1P 3AZ,Westminster,,100023000000,E09000033,St James's,E05013806,51.497938,-0.129326046,529948.0131000001,179325.00200000033,779
Performing Right Society Archives,29/33 Berners Street, ,W1P 4AA,Westminster,,100000000000,E09000033,West End,E05013808,51.5184036,-0.137121112,529349.0115999999,181587.00239999965,779
The Theatres Trust Resource Centre,22 Charing Cross Road, ,WC2H 0QL,Westminster,,10033531816,E09000033,St James's,E05013806,51.51060881,-0.12820152,529990.0120000001,180736.00280000083,779
Photographers Gallery ,6-8 Ramillies Street, ,W1F 7LW,Westminster,,,E09000033,West End,E05013808,51.5155547,-0.138631346,529252.2978999997,181267.5351999998,779
Advertising Association,7th Floor North Artillery House,Regents Park ,SW1P 1RT,Westminster,https://www.adassoc.org.uk/,100023000000,E09000033,St James's,E05013806,51.49670957,-0.135196816,529544.0135000004,179178.0030000005,779
Agnew's,8 Grafton Street, ,W1S 4EL,Westminster,http://www.agnewsgallery.com/,100023000000,E09000033,West End,E05013808,51.51005319,-0.143601127,528923.0120000001,180647.00239999965,779
Air League,3 Whitehall Court, ,SW1A2EL,Westminster,https://www.airleague.co.uk/,10033625553,E09000033,St James's,E05013806,51.49984047,-0.132461109,529725.0126,179531.00239999965,779
Alexander Fleming Laboratory Museum,St Mary's Hospital ,Praed Street ,W2 1NY,Westminster,https://www.imperial.nhs.uk/about-us/who-we-are/fleming-museum,200001000000,E09000033,Hyde Park,E05013796,51.51697102,-0.173544641,526826.0121999998,181364.0033999998,779
Alfred Dunhill Museum and Archive,Alfred Dunhill Ltd ,5-7 Mandeville Place ,W1U 3AY,Westminster,https://www.dunhill.com/gb,100023000000,E09000033,Marylebone,E05013801,51.5163984,-0.151342371,528368.0116999997,181339.00290000066,779
Anglo-Chilean Society,12 Devonshire Street, ,W1N 2DS,Westminster,https://www.anglochileansociety.org/,100023000000,E09000033,Marylebone,E05013801,51.52207935,-0.146629122,528679.0115,181979.00320000015,779
Anthroposophical Society in Great Britain,Rudolf Steiner House ,35 Park Road ,NW1 6XT,Westminster,https://www.anthroposophy.org.uk/,200002000000,E09000033,Regent's Park,E05013805,51.52489743,-0.160555743,527705.0121999998,182268.00290000066,779
Arab-British Chamber of Commerce,43 Upper Grosvenor Street, ,W1K 2NJ,Westminster,https://www.abcc.org.uk/,100023000000,E09000033,West End,E05013808,51.51042165,-0.153270578,528251.0115999999,180671.00229999982,779
Archives of the British Psychoanalytical Society,Institute of Psychoanalysis Bryon House ,112A Shirland Road ,W9 2BT,Westminster,http://psychoanalysis.org.uk/archive/view-archive-collections,10033595987,E09000033,Maida Vale,E05013800,51.52664589,-0.194378265,525354.0126,182404.0033999998,779
Archives of the Royal Philatelic Society London,The Royal Philatelic Society London ,41 Devonshire Place ,W1G 6JY,Westminster,http://www.rpsl.org.uk/library.asp,100023000000,E09000033,Marylebone,E05013801,51.52147742,-0.150084306,528441.0116999997,181906.0030000005,779
Association of Anaesthetists of Great Britain and Ire,21 Portland Place, ,W1B 1PY,Westminster,https://www.aagbi.org/,10033598850,E09000033,Marylebone,E05013801,51.51939349,-0.145109412,528792.0115999999,181683.00280000083,779
Association of Conservative Clubs Ltd,24 Old Queen Street, ,SW1H 9HP,Westminster,https://www.toryclubs.co.uk/,100023000000,E09000033,St James's,E05013806,51.50100242,-0.130886294,529831.0125000002,179663.00200000033,779
Association of Directors of Adult Social Services,ADSS Business Unit Local Government House ,Smith Square ,SW1P 3HZ,Westminster,https://www.adass.org.uk/home,10033543338,E09000033,St James's,E05013806,51.49557688,-0.126757514,530133.0136000002,179067.00239999965,779
Athenaeum,107 Pall Mall, ,SW1Y 5ER,Westminster,http://www.athenaeumclub.co.uk/,100023000000,E09000033,St James's,E05013806,51.50684074,-0.132707924,529688.0122999996,180309.00229999982,779
Blind Veterans UK,12-14 Harcourt Street, ,W1H 4HD,Westminster,https://www.blindveterans.org.uk/,10033535975,E09000033,Marylebone,E05013801,51.52012515,-0.164755341,527427.0120999999,181730.00269999914,779
British Academy,10 Carlton House Terrace, ,SW1Y 5AH,Westminster,https://www.thebritishacademy.ac.uk/,100023000000,E09000033,St James's,E05013806,51.5063498,-0.131243765,529791.0122999996,180257.00229999982,779
British Actors' Equity Association,Guild House ,Upper St Martins Lane ,WC2H 9EG,Westminster,https://www.equity.org.uk/,100023000000,E09000033,St James's,E05013806,51.51208035,-0.127997054,530000.0116999997,180900.00249999948,779
British Board of Film Classification,3 Soho Square, ,W1D 3HD,Westminster,http://www.bbfc.co.uk/,100023000000,E09000033,West End,E05013808,51.51533741,-0.133181828,529631.0118000004,181253.00239999965,779
British Council,10 Spring Gardens, ,SW1A 2BN,Westminster,https://www.britishcouncil.org/,100024000000,E09000033,St James's,E05013806,51.50699994,-0.129718478,529895.0122999996,180332.00200000033,779
British Dental Association Museum,64 Wimpole Street, ,W1G 8YS,Westminster,https://bda.org/museum,100023000000,E09000033,Marylebone,E05013801,51.5185766,-0.148616377,528551.0116999997,181586.00269999914,779
British Institute of Radiology,36 Portland Place, ,W1B 1AT,Westminster,https://www.bir.org.uk/,100023000000,E09000033,West End,E05013808,51.52001346,-0.144507634,528832.0115,181753.00269999914,779
British Retail Consortium,Second Floor ,21 Dartmouth Street ,SW1H 9BP,Westminster,https://brc.org.uk/,100024000000,E09000033,St James's,E05013806,51.50031567,-0.131807714,529769.0125000002,179585.00229999982,779
British Universities Film and Video Council,77 Wells Street, ,W1T 3QJ,Westminster,http://bufvc.ac.uk/,10033579368,E09000033,West End,E05013808,51.51637417,-0.137304849,529342.0119000003,181361.00280000083,779
British Veterinary Association,7 Mansfield Street, ,W1G 9NQ,Westminster,https://www.bva.co.uk/,100023000000,E09000033,Marylebone,E05013801,51.51901537,-0.146220252,528716.0116999997,181639.00269999914,779
British-German Association,34 Belgrave Square, ,SW1X 8QB,Westminster,https://www.britishgermanassociation.org/,100023000000,E09000033,Knightsbridge & Belgravia,E05013797,51.49860148,-0.151890056,528380.0126,179359.00239999965,779
Building Societies Association,6th Floor,York House  23 Kingsway,WC2B 6UJ,Westminster,https://www.bsa.org.uk/,10033583375,E09000033,St James's,E05013806,51.51389915,-0.118583158,530648.0116999997,181119.00269999914,779
Canning House Library,2 Belgrave Square, ,SW1X 8PJ,Westminster,https://www.canninghouse.org/library/,100023000000,E09000033,Knightsbridge & Belgravia,E05013797,51.5003496,-0.154398373,528201.0120999999,179549.00320000015,779
Catholic Bishops' Conference of England and Wales,Catholic Trust for England and Wales ,39 Eccleston Square ,SW1V 1BX,Westminster,http://www.cbcew.org.uk/,100023000000,E09000033,Pimlico North,E05013802,51.49106651,-0.144765532,528895.7528999997,178533.61309999973,779
Catholic Education Service,39 Eccleston Square, ,SW1V 1BX,Westminster,http://www.catholiceducation.org.uk/,100023000000,E09000033,Pimlico North,E05013802,51.49106651,-0.144765532,528895.7528999997,178533.61309999973,779
Cayzer Family Archive,Cayzer House ,30 Buckingham Gate ,SW1E 6NN,Westminster,http://www.cayzer.com/,100023000000,E09000033,St James's,E05013806,51.49918072,-0.139043655,529270.0126999998,179446.00269999914,779
Chartered Institute of Public Finance and Accountancy,3 Robert Street, ,WC2N 6BH,Westminster,https://www.cipfa.org/,100024000000,E09000033,St James's,E05013806,51.50874887,-0.122671958,530379.0122999996,180539.0025999993,779
Chemical Industries Association,Kings Buildings ,Smith Square ,SW1P 3JJ,Westminster,https://www.cia.org.uk/,10033571884,E09000033,St James's,E05013806,51.49575664,-0.126188277,530172.0135000004,179088.00310000032,779
City of Westminster Archives Centre,10 St Ann's Street, ,SW1P 2DE,Westminster,https://www.westminster.gov.uk/archives,100023000000,E09000033,St James's,E05013806,51.49755544,-0.130148527,529892.0131999999,179281.00249999948,779
Civic Trust,17 Carlton House Terrace, ,SW1Y 5AW,Westminster,https://www.civictrust.org.uk/,100023000000,E09000033,St James's,E05013806,51.50671003,-0.130148252,529866.0122999996,180299.00170000084,779
Commonwealth Parliamentary Association,Suite 700 Westminster House ,7 Millbank ,SW1P 3JA,Westminster,http://www.cpahq.org/cpahq/,10033584807,E09000033,St James's,E05013806,51.49644332,-0.126390616,530156.0133999996,179164.00290000066,779
Commonwealth Secretariat,Marlborough House ,Pall Mall ,SW1Y 5HX,Westminster,http://thecommonwealth.org/,100023000000,E09000033,St James's,E05013806,51.50514791,-0.135961714,529467.0121999998,180115.00249999948,779
Conservative Christian Fellowship,CCHQ ,30 Millbank  ,SW1P 4DP,Westminster,https://www.christian-conservatives.org.uk/,10033598461,E09000033,Vincent Square,E05013807,51.49272186,-0.125923818,530199.0122999996,178751.00249999948,779
Conservative Party Research Department, 25 Victoria Street, ,SW1H 0DL,Westminster,https://www.conservativehome.com/tag/conservative-research-department,100023000000,E09000033,St James's,E05013806,51.49813388,-0.132588528,529721.0131000001,179341.00249999948,779
Coutts & Co,Archives Department ,440 Strand ,WC2R 0QS,Westminster,https://www.coutts.com/,100023000000,E09000033,St James's,E05013806,51.50910072,-0.124992068,530217.0121999998,180574.0019000005,779
Dairy Industry Federation,19 Cornwall Terrace, ,NW1 4QP,Westminster,http://www.ndfas.org.uk/,,E09000033,Regent's Park,E05013805,51.52343,-0.15587,528034.1662999997,182113.00290000066,779
Duchy of Cornwall Office,10 Buckingham Gate, ,SW1E 6LA,Westminster,https://duchyofcornwall.org/contact-details.html,100023000000,E09000033,St James's,E05013806,51.49993301,-0.141116576,529124.0124000004,179526.00269999914,779
Duchy of Lancaster Office,1 Lancaster Place ,Strand ,WC2E 7ED,Westminster,https://www.duchyoflancaster.co.uk/,100023000000,E09000033,St James's,E05013806,51.51013113,-0.118579941,530659.0120999999,180700.00180000067,779
Electrical Contractors' Association,ESCA House ,34 Palace Court ,W2 4HY,Westminster,https://www.eca.co.uk/,100023000000,E09000033,Bayswater,E05013793,51.51178125,-0.192055219,525556.0126,180755.00320000015,779
English National Ballet Archives,Markova House, 39 Jays Mews ,SW7 2ES,Westminster,https://www.ballet.org.uk/research-enquiries/,100023000000,E09000033,Knightsbridge & Belgravia,E05013797,51.50074685,-0.17866026,526516.0120999999,179551.00290000066,779
English-Speaking Union of the Commonwealth,Page Memorial Library Dartmouth House, ,W1J 5ED,Westminster,https://www.esu.org/,100023000000,E09000033,West End,E05013808,51.50786441,-0.146788412,528708.0119000003,180398.00269999914,779
Federation of British Artists,17 Carlton House Terrace, ,SW1Y 5BD,Westminster,https://www.mallgalleries.org.uk/about-us/federation-british-artists,100023000000,E09000033,St James's,E05013806,51.50671,-0.13015,529865.8910999997,180298.99530000053,779
Finance and Leasing Association,2nd Floor Imperial House ,15-19 Kingsway ,WC2B 6UN,Westminster,https://www.fla.org.uk/home/,10033589788,E09000033,St James's,E05013806,51.51371733,-0.11846,530657.0769999996,181099.00390000083,779
Food and Drink Federation,6 Catherine Street, ,WC2B 5JJ,Westminster,https://www.fdf.org.uk/,100000000000,E09000033,St James's,E05013806,51.51270833,-0.12003022,530551.0116999997,180984.00280000083,779
Football Association,25 Soho Square, ,W1D 4FA,Westminster,http://www.thefa.com/,10033604804,E09000033,West End,E05013808,51.51516082,-0.13112801,529774.0118000004,181237.00210000016,779
French Protestant Church,8-9 Soho Sq, ,W1D 3QD,Westminster,http://www.egliseprotestantelondres.org.uk/en/,10033543361,E09000033,West End,E05013808,51.51580427,-0.133133904,529633.0118000004,181305.00249999948,779
Garrick Club Library,Garrick Club ,15 Garrick Street ,WC2E 9AY,Westminster,https://www.garrickclub.co.uk/library/,10033599098,E09000033,St James's,E05013806,51.51130593,-0.126241768,530124.0118000004,180817.00280000083,779
General Dental Council,37 Wimpole Street, ,W1G 8DQ,Westminster,https://www.gdc-uk.org/,10033579475,E09000033,Marylebone,E05013801,51.51979279,-0.148754417,528538.0116999997,181721.0025999993,779
Geological Society of London,Burlington House ,Piccadilly ,W1J 0BG,Westminster,https://www.geolsoc.org.uk/,100000000000,E09000033,West End,E05013808,51.50909914,-0.139576037,529205.0121999998,180548.00249999948,779
Geologists Association,Burlington House, Piccadilly ,W1J 0DU,Westminster,https://geologistsassociation.org.uk/,100000000000,E09000033,West End,E05013808,51.50909914,-0.139576037,529205.0121999998,180548.00249999948,779
Gimpel Fils,30 Davies Street, ,W1K 4NB,Westminster,http://www.gimpelfils.com/,100000000000,E09000033,West End,E05013808,51.51195324,-0.14774652,528630.0118000004,180851.00290000066,779
Girlguiding UK,17-19 Buckingham Palace Road, ,SW1W 0PT,Westminster,https://www.girlguiding.org.uk/,10033531078,E09000033,St James's,E05013806,51.49875796,-0.143008591,528996.0126999998,179392.0030000005,779
Great Britain - China Centre,15 Belgrave Square, ,SW1X 8PS,Westminster,http://www.gbcc.org.uk/,100000000000,E09000033,Knightsbridge & Belgravia,E05013797,51.49860801,-0.155160323,528153.0125000002,179354.00329999998,779
Green Alliance,4th Floor Victoria Charity Centre ,11 Belgrave Road ,SW1V 1RB,Westminster,https://www.green-alliance.org.uk/,100000000000,E09000033,Pimlico North,E05013802,51.49269242,-0.142160353,529072.0127999997,178719.0022,779
Grenadier Guards Regimental Archives,Wellington Barracks ,Birdcage Walk ,SW1E 6HQ,Westminster,http://grengds.com/static.php?content_id=12,100000000000,E09000033,St James's,E05013806,51.4999858,-0.137642078,529365.0125000002,179538.00229999982,779
Handel House Trust,25 Brook Street, ,W1,Westminster,https://handelhendrix.org/about-us/handel-house-trust/,100000000000,E09000033,West End,E05013808,51.51296728,-0.145903845,528755.0119000003,180967.00280000083,779
Howard de Walden Estates Ltd,23 Queen Anne Street, ,W1G 9DL,Westminster,https://www.hdwe.co.uk/,100000000000,E09000033,Marylebone,E05013801,51.51794832,-0.146984288,528666.0116999997,181519.00280000083,779
Imperial College Archives and Corporate Records Unit,Room 455 Sherfield Building Imperial College, ,SW7 2AZ,Westminster,https://www.imperial.ac.uk/admin-services/acru/,10033558317,E09000033,Knightsbridge & Belgravia,E05013797,51.49886271,-0.174888563,526783.0124000004,179348.00349999964,779
Imperial College Healthcare NHS Trust Archives,St Mary's Hospital ,Praed Street ,W2 1NY,Westminster,https://www.imperial.nhs.uk/about-us/who-we-are/our-history,200000000000,E09000033,Hyde Park,E05013796,51.51697102,-0.173544641,526826.0121999998,181364.0033999998,779
Imperial War Museum: Churchill War Rooms,Clive Steps ,King Charles Street  Westminster,SW1A 2QA,Westminster,https://www.iwm.org.uk/visits/churchill-war-rooms,10033636263,E09000033,St James's,E05013806,51.50217907,-0.129377362,529932.3925000001,179796.52160000056,779
Incorporated Council of Law Reporting for England and,Megarry House 119 Chancery Lane, ,WC2A 1PP,Westminster,http://iclr.co.uk/,10033591744,E09000033,St James's,E05013806,51.51440862,-0.111672912,531126.0113000004,181188.00310000032,779
Institute for European Environmental Policy,15 Queen Anne's Gate, ,SW1H 9BU,Westminster,https://ieep.eu/,100000000000,E09000033,St James's,E05013806,51.50034483,-0.133074443,529681.0125000002,179586.0019000005,779
Institute of Brewing & Distilling,33 Clarges Street, Mayfair ,W1Y 8EE,Westminster,https://www.ibd.org.uk/home/,100000000000,E09000033,West End,E05013808,51.50689961,-0.145487425,528801.0119000003,180293.00229999982,779
Institute of Contemporary Arts,The Mall ,12 Carlton House Terrace ,SW1Y 5AH,Westminster,https://www.ica.art/,100000000000,E09000033,St James's,E05013806,51.50638923,-0.130896308,529815.0122999996,180262.0025999993,779
Institute of Directors,116 & 123 Pall Mall, ,SW1Y 5ED,Westminster,https://www.iod.com/,100000000000,E09000033,St James's,E05013806,51.50719177,-0.131598377,529764.0122999996,180350.00200000033,779
"Institute of Materials, Minerals and Mining",1 Carlton House Terrace, ,SW1Y 5DB,Westminster,https://www.iom3.org/,100000000000,E09000033,St James's,E05013806,51.50569129,-0.133374566,529645.0122999996,180180.00229999982,779
Institute of Physics,76 Portland Place, ,W1B 1NT,Westminster,http://www.iop.org/,100000000000,E09000033,West End,E05013808,51.52168834,-0.145217928,528778.0114000002,181938.0025999993,779
Institution of Civil Engineers,One Great George Street, ,SW1P 3AA,Westminster,https://www.ice.org.uk/,100000000000,E09000033,St James's,E05013806,51.50110324,-0.128749716,529979.0125000002,179678.00170000084,779
Institution of Engineering and Technology (IET) Archi,Savoy Hill House ,7-10 Savoy Hill ,WC2R 0BU,Westminster,https://www.theiet.org/resources/library/archives/index.cfm,100000000000,E09000033,St James's,E05013806,51.51028947,-0.119481331,530596.0120000001,180716.00200000033,779
Institution of Incorporated Engineers,Savoy Hill House ,Savoy Hill ,WC2R 0BS,Westminster,https://www.theiet.org/membership/profreg/ieng/,100000000000,E09000033,St James's,E05013806,51.51028947,-0.119481331,530596.0120000001,180716.00200000033,779
Institution of Mechanical Engineers Archive,1 Bird Cage Walk, ,SW1H 9JJ,Westminster,https://www.imeche.org/libraries-archive/archive-and-artefacts,10033530502,E09000033,St James's,E05013806,51.50120342,-0.129955923,529895.0125000002,179687.00249999948,779
Japan Society,Swire House ,59 Buckingham Gate ,SW1E 6AJ,Westminster,https://www.japansociety.org.uk/,100000000000,E09000033,St James's,E05013806,51.49808833,-0.136509229,529449.0130000003,179329.00280000083,779
Landscape Institute,33 Great Portland Street, ,W1W 8QG,Westminster,https://www.landscapeinstitute.org/,100000000000,E09000033,West End,E05013808,51.51690058,-0.141578562,529044.0118000004,181412.00239999965,779
Law Society of England and Wales,113 Chancery Lane, ,WC2A 1PL,Westminster,https://www.lawsociety.org.uk/,10033554126,E09000033,St James's,E05013806,51.51495084,-0.111837845,531113.0113000004,181248.0030000005,779
Linnean Society of London,Burlington House, Piccadilly ,W1J 0BF,Westminster,https://www.linnean.org/,100000000000,E09000033,West End,E05013808,51.50909914,-0.139576037,529205.0121999998,180548.00249999948,779
London Business School Library,Sussex Place , ,NW1 4SA,Westminster,https://www.london.edu/experience/campus-services/library,100000000000,E09000033,Regent's Park,E05013805,51.52658256,-0.161352782,527645.0121999998,182454.00280000083,779
London Library,14 St James Square, ,SW1Y 4LG,Westminster,https://www.londonlibrary.co.uk/,10033543639,E09000033,St James's,E05013806,51.50734035,-0.136981791,529390.0121999998,180357.00200000033,779
London Transport Museum,Covent Garden, ,WC2E 7BB,Westminster,https://www.ltmuseum.co.uk/,10033620435,E09000033,St James's,E05013806,51.5121249,-0.121221618,530470.0115999999,180917.00239999965,779
London University: Courtauld Institute of Art,Book Library Courtauld Institute of Art Somerset H,Strand ,WC2R 0RN,Westminster,https://courtauld.ac.uk/,100000000000,E09000033,St James's,E05013806,51.51102034,-0.117952415,530700.0119000003,180800.0022,779
London University: London School of Economics Library,Lionel Robbins Building ,10 Portugal Street ,WC2A 2HD,Westminster,http://www.lse.ac.uk/library/using-the-library/access-archives-and-special-collections,100000000000,E09000033,St James's,E05013806,51.51483618,-0.11589258,530832.0115999999,181228.00310000032,779
"London University: London School of Economics, The Wo",London School of Economics and Political Science ,10 Portugal Street ,WC2A 2HD,Westminster,http://www.lse.ac.uk/Library/Collections/Collection-highlights/The-Womens-Library,10033572083,E09000033,St James's,E05013806,51.51483618,-0.11589258,530832.0115999999,181228.00310000032,779
Madame Tussaud's Ltd,Marylebone Road, ,NW1 5LR,Westminster,https://www.madametussauds.com/?utm_campaign=coukredirect,100000000000,E09000033,Regent's Park,E05013805,51.5229671,-0.155026018,528094.0119000003,182063.0033999998,779
Marylebone Cricket Club Library,Lord's Cricket Ground ,St John's Wood ,NW8 8QN,Westminster,https://www.lords.org/lords/tours-and-museum/museum/our-departments/mcc-library/,100000000000,E09000033,Abbey Road,E05013792,51.52943247,-0.17281502,526842.0126999998,182751.00349999964,779
Matt's Gallery,6 Charles Clowes Walk,Nine Elms ,SW11 7AN,Westminster,https://www.mattsgallery.org/,,E09000033,Pimlico South,E05013803,51.48718187,-0.132063339,529788.5495999996,178124.05749999918,779
Medical Research Council,20 Park Crescent, ,W1N 1AL,Westminster,https://mrc.ukri.org/,100000000000,E09000033,Marylebone,E05013801,51.52278226,-0.147292501,528631.0115999999,182056.00249999948,779
Mothers' Union,Mary Sumner House ,24 Tufton Street ,SW1P 3RB,Westminster,https://www.mothersunion.org/,100000000000,E09000033,St James's,E05013806,51.49665845,-0.128600476,530002.0133999996,179184.00210000016,779
National Campaign for Nursery Education,Tachbrook Nursery School ,Aylesford Street ,SW1V 3RN,Westminster,https://www.nurseryworld.co.uk/nursery-world/news/1090442/national-campaign-real-nursery-education,100000000000,E09000033,Pimlico South,E05013803,51.48659594,-0.132570322,529755.0146000003,178058.00359999947,779
National Gallery Research Centre,The National Gallery Trafalgar Square, ,WC2N 5DN,Westminster,https://www.nationalgallery.org.uk/research/research-centre,100000000000,E09000033,St James's,E05013806,51.50909835,-0.127658197,530032.0120999999,180569.00249999948,779
National Institute of Economic and Social Research,2 Dean Trench Street Smith Square, ,SW1P 3HE,Westminster,https://www.niesr.ac.uk/,10033533249,E09000033,St James's,E05013806,51.49570564,-0.128063247,530042.0136000002,179079.00229999982,779
National Liberal Club,Whitehall Place, ,SW1A 2HE,Westminster,http://www.nlc.org.uk/,10033570113,E09000033,St James's,E05013806,51.50604245,-0.123820779,530307.0124000004,180236.0022,779
National Portrait Gallery,Heinz Archive and Library St Martin's Place, ,WC2H 0HE,Westminster,https://www.npg.org.uk/,100000000000,E09000033,St James's,E05013806,51.5093988,-0.128452893,529976.0120999999,180601.00249999948,779
Nursing and Midwifery Council,23 Portland Place, ,W1B 1PZ,Westminster,https://www.nmc.org.uk/,100000000000,E09000033,Marylebone,E05013801,51.51956538,-0.145174496,528787.0115,181702.00280000083,779
Palestine Exploration Fund,2 Hinde Mews Marylebone Lane, ,W1U 2AA,Westminster,https://www.pef.org.uk/,100000000000,E09000033,Marylebone,E05013801,51.51676904,-0.150894955,528398.0116999997,181381.00280000083,779
Parliamentary Archives,Houses of Parliament, ,SW1A 0PW,Westminster,https://www.parliament.uk/business/publications/parliamentary-archives/,10033540874,E09000033,St James's,E05013806,51.49984153,-0.124637491,530268.0126,179545.00229999982,779
Plastics Historical Society,Institute of Materials,Minerals and Mining 1 Carlton House T,SW1Y 5DB,Westminster,http://plastiquarian.com/,100000000000,E09000033,St James's,E05013806,51.50569129,-0.133374566,529645.0122999996,180180.00229999982,779
Radio Centre,77 Shaftesbury Avenue , ,W1D 5DU,Westminster,https://www.radiocentre.org/,10033570247,E09000033,West End,E05013808,51.51256293,-0.131191151,529777.0119000003,180948.00210000016,779
Reform Club,104 Pall Mall, ,SW1Y 5EW,Westminster,https://www.reformclub.com/,100000000000,E09000033,St James's,E05013806,51.50660955,-0.13343789,529638.0122999996,180282.00170000084,779
Royal Academy of Arts,Burlington House ,Piccadilly ,W1J 0BD,Westminster,https://www.royalacademy.org.uk/,100000000000,E09000033,West End,E05013808,51.50909914,-0.139576037,529205.0121999998,180548.00249999948,779
Royal Academy of Music Library,Marylebone Road, ,NW1 5HT,Westminster,https://www.ram.ac.uk/museum/library,10033538190,E09000033,Regent's Park,E05013805,51.52349886,-0.151674537,528325.0119000003,182128.00269999914,779
Royal Albert Hall Archive,Kensington Gore, ,SW7 2AP,Westminster,https://www.royalalberthall.com/about-the-hall/our-history/,100000000000,E09000033,Knightsbridge & Belgravia,E05013797,51.50126863,-0.17751559,526594.0120999999,179611.00290000066,779
Royal Anglo-Belgian Club,60 Knightsbridge, ,SW1X 7LF,Westminster,http://www.anglobelgiansociety.com/,100000000000,E09000033,Knightsbridge & Belgravia,E05013797,51.50247195,-0.158981047,527877.0120999999,179777.00239999965,779
Royal Astronomical Society Library,Burlington House ,Piccadilly ,W1V 0BQ,Westminster,https://ras.ac.uk/library,100000000000,E09000033,West End,E05013808,51.50909914,-0.139576037,529205.0121999998,180548.00249999948,779
Royal Automobile Club,89 Pall Mall, ,SW1Y 5HS,Westminster,https://www.royalautomobileclub.co.uk/,100000000000,E09000033,St James's,E05013806,51.50592662,-0.135166189,529520.0122999996,180203.00210000016,779
Royal College of Art,Kensington Gore, ,SW7 2EU,Westminster,https://www.rca.ac.uk/,100000000000,E09000033,Knightsbridge & Belgravia,E05013797,51.50135507,-0.178448688,526529.0120999999,179619.00329999998,779
Royal College of Midwives Archives,15 Mansfield Street, ,W1G 9NH,Westminster,https://www.rcm.org.uk/news-views-and-analysis/news/midwives-archive,100000000000,E09000033,Marylebone,E05013801,51.51936074,-0.146451262,528699.0115999999,181677.00239999965,779
Royal College of Music,Prince Consort Road, ,SW7 2BS,Westminster,https://www.rcm.ac.uk/,100000000000,E09000033,Knightsbridge & Belgravia,E05013797,51.4992805,-0.176888956,526643.0124000004,179391.00280000083,779
Royal College of Obstetricians and Gynaecologists,Information Services ,27 Sussex Place Regent's Park ,NW1 4RG,Westminster,https://www.rcog.org.uk/,10033637999,E09000033,Regent's Park,E05013805,51.52680999,-0.162093274,527593.0122999996,182478.00310000032,779
Royal College of Pathologists,2 Carlton House Terrace, ,SW1Y 5AF,Westminster,https://www.rcpath.org/,10033604994,E09000033,St James's,E05013806,51.50580651,-0.133268985,529652.0122999996,180193.00170000084,779
Royal College of Surgeons of England,35-43 Lincoln's Inn Fields, ,WC2A 3PE,Westminster,https://www.rcseng.ac.uk/,100000000000,E09000033,St James's,E05013806,51.51528552,-0.11587403,530832.0115999999,181278.00310000032,779
Royal College of Veterinary Surgeons Trust,Belgravia House ,62-64 Horseferry Road ,SW1P 2AF,Westminster,https://www.rcvs.org.uk/home/,100000000000,E09000033,St James's,E05013806,51.49497311,-0.12780514,530062.0137999998,178998.00249999948,779
Royal Commission for the Exhibition of 1851,Sherfield Building,Imperial College ,SW7 2AZ,Westminster,https://www.royalcommission1851.org/,10033539795,E09000033,Knightsbridge & Belgravia,E05013797,51.49874348,-0.177630777,526593.0124000004,179330.00329999998,779
Royal Geographical Society,Foyle Reading Room Royal Geographical Society (wit,1 Kensington Gore ,SW7 2AR,Westminster,https://www.rgs.org/,10033599795,E09000033,Knightsbridge & Belgravia,E05013797,51.50150309,-0.175244098,526751.0120999999,179641.0025999993,779
Royal Horticultural Society Lindley Libraries,Lindley Library, 80 Vincent Square ,SW1P 2PE,Westminster,https://www.rhs.org.uk/education-learning/libraries-at-rhs/visit-the-libraries/lindley-library-london,100000000000,E09000033,Vincent Square,E05013807,51.49436107,-0.134543574,529596.0140000004,178918.0030000005,779
Royal Humane Society,Brettenham House Lancaster Place, ,WC2E 7EP,Westminster,https://www.royalhumanesociety.org.uk/,10033537234,E09000033,St James's,E05013806,51.51055883,-0.118893777,530636.0119000003,180747.00269999914,779
Royal Institute of International Affairs,Chatham House ,10 St James's Square ,SW1Y 4LE,Westminster,https://www.chathamhouse.org/,10033543661,E09000033,St James's,E05013806,51.50778656,-0.136199821,529443.0121999998,180408.00249999948,779
Royal Institution of Great Britain,21 Albemarle Street, ,W1S 4BS,Westminster,http://www.rigb.org/,10033528771,E09000033,West End,E05013808,51.50994668,-0.14255344,528996.0120000001,180637.00269999914,779
Royal Institution of Naval Architects,8-9 Northumberland Street, ,WC2N 5DA,Westminster,https://www.rina.org.uk/,10033553840,E09000033,St James's,E05013806,51.50743401,-0.125363147,530196.0122999996,180388.0025999993,779
Royal National Institute for the Blind,224 Great Portland Street, ,W1N 6AA,Westminster,https://www.rnib.org.uk/,10033589403,E09000033,West End,E05013808,51.51655711,-0.14090071,529092.0119000003,181375.00249999948,779
Royal Opera House Collections,Covent Garden, ,WC2E 9DD,Westminster,http://www.rohcollections.org.uk/,10033547198,E09000033,St James's,E05013806,51.51304711,-0.122653705,530368.0115999999,181017.00320000015,779
Royal Over-Seas League,Park Place ,St James's Street ,SW1A 1LR,Westminster,https://www.rosl.org.uk/,10033540380,E09000033,St James's,E05013806,51.50631997,-0.140683595,529136.0120999999,180237.00269999914,779
Royal Society,6-9 Carlton House Terrace, ,SW1Y 5AG,Westminster,https://royalsociety.org/,10033553874,E09000033,St James's,E05013806,51.50587456,-0.132459245,529708.0122999996,180202.00229999982,779
Royal Society for Asian Affairs,25 Eccleston Place, ,SW1W 9NF,Westminster,https://rsaa.org.uk/,100000000000,E09000033,Knightsbridge & Belgravia,E05013797,51.49372918,-0.148010279,528663.0131999999,178824.0025999993,779
Royal Society of Chemistry,Burlington House, ,W1V 0BN,Westminster,http://www.rsc.org/,100000000000,E09000033,West End,E05013808,51.50909914,-0.139576037,529205.0121999998,180548.00249999948,779
Royal Society of Literature,Somerset House Strand, ,WC2R 1LA,Westminster,https://rsliterature.org/,100000000000,E09000033,St James's,E05013806,51.51102034,-0.117952415,530700.0119000003,180800.0022,779
Royal Society of Medicine,1 Wimpole Street, ,W1G 0AE,Westminster,https://www.rsm.ac.uk/,10033570133,E09000033,West End,E05013808,51.51600691,-0.147048706,528667.0118000004,181303.00210000016,779
"RSA (The Royal Society for the Encouragement of Arts,",8 John Adam Street, ,WC2N 6EZ,Westminster,https://www.thersa.org/about-us/archive-and-history,10033548186,E09000033,St James's,E05013806,51.50939707,-0.122717356,530374.0120999999,180611.0022,779
Savoy Archives,The Savoy Strand, ,WC2R 0EU,Westminster,https://www.fairmont.com/savoy-london/,100000000000,E09000033,St James's,E05013806,51.50994545,-0.119899019,530568.0120999999,180677.00210000016,779
Science Museum Library (Documentation),Imperial College Road, ,SW7 5NH,Westminster,http://whoami.sciencemuseum.org.uk/about-us/collections-and-research/collections/library-collections/lib,10033558383,E09000033,Knightsbridge & Belgravia,E05013797,51.49832104,-0.178223934,526553.0125000002,179282.00269999914,779
Scots Guards Regimental Headquarters,Wellington Barracks, Birdcage Walk ,SW1E 6HQ,Westminster,https://scotsguards.org/category/news/rhq/,100000000000,E09000033,St James's,E05013806,51.4999858,-0.137642078,529365.0125000002,179538.00229999982,779
Society of Antiquaries of London,Burlington House ,Piccadilly ,W1J 0BE,Westminster,https://www.sal.org.uk/,100000000000,E09000033,West End,E05013808,51.50909914,-0.139576037,529205.0121999998,180548.00249999948,779
Society of Motor Manufacturers and Traders Ltd,Forbes House ,Halkin Street ,SW1X 7DS,Westminster,https://www.smmt.co.uk/,100000000000,E09000033,Knightsbridge & Belgravia,E05013797,51.50108697,-0.152682785,528318.0120000001,179634.00310000032,779
Society of St John the Evangelist,St Edward's House ,22 Great College Street ,SW1P 3QA,Westminster,https://www.ssje.org/,100000000000,E09000033,St James's,E05013806,51.49775347,-0.128469161,530008.0131000001,179306.0022,779
St Vincent de Paul Society (England & Wales) Ltd,14 Blandford Street, ,W1H 4DP,Westminster,https://www.svp.org.uk/,10033600315,E09000033,Marylebone,E05013801,51.51862244,-0.152664835,528270.0118000004,181584.00269999914,779
Tate Gallery Archive,Hyman Kreitman Reading Rooms Tate Britain ,Millbank ,SW1P 4RG,Westminster,https://www.tate.org.uk/art/archive,10033538284,E09000033,Vincent Square,E05013807,51.49087146,-0.127180936,530117.0122999996,178543.00280000083,779
The Society of The Faith,Faith House ,7 Tufton Street ,SW1P 3QB,Westminster,https://www.societyofthefaith.org.uk/,100000000000,E09000033,St James's,E05013806,51.49757121,-0.12831815,530019.0131000001,179286.00280000083,779
The Welsh Regiment,Regimental Headquarters  CRO 3-10  WG 2-27, ,SW1E 6HQ,Westminster,https://www.nam.ac.uk/explore/welch-regiment,100000000000,E09000033,St James's,E05013806,51.4999858,-0.137642078,529365.0125000002,179538.00229999982,779
Town and Country Planning Association,17 Carlton House Terrace, ,SW1Y 5AS,Westminster,https://www.tcpa.org.uk/,100000000000,E09000033,St James's,E05013806,51.50671003,-0.130148252,529866.0122999996,180299.00170000084,779
Transport for London (TfL) Corporate Archives,Room 250 2nd Floor ,55 Broadway ,SW1H 0BD,Westminster,https://tfl.gov.uk/corporate/about-tfl/culture-and-heritage/corporate-archives,10033591154,E09000033,St James's,E05013806,51.49942609,-0.133501017,529654.0126999998,179483.08220000006,779
University of the Arts London: Chelsea College of Art,16 John Islip Street, ,SW1P 4JU,Westminster,https://www.arts.ac.uk/colleges/chelsea-college-of-arts,10033569512,E09000033,Vincent Square,E05013807,51.49055367,-0.129232572,529975.4926000005,178504.02300000004,779
University of Westminster Archives,Archive Services ISLS ,4-12 Little Titchfield Street ,W1W 7UW,Westminster,https://www.westminster.ac.uk/about-us/our-facilities-and-services/archive-services,10033537542,E09000033,West End,E05013808,51.51819661,-0.141078952,529075.0115999999,181557.0030000005,779
Victim Support National Centre,Octavia House ,50 Banner Street ,EC1Y8ST,Westminster,https://www.victimsupport.org.uk/,10033595943,E09000033,West End,E05013808,51.52097037,-0.143603839,528892.0113000004,181861.0025999993,779
Wallace Collection,Hertford House ,Manchester Square ,W1U 3BN,Westminster,https://www.wallacecollection.org/,10033582984,E09000033,Marylebone,E05013801,51.51716928,-0.152896625,528258.0116999997,181422.00320000015,779
Westminster Abbey Library and Muniment Room,The Cloisters ,Westminster Abbey ,SW1P 3PA,Westminster,https://www.westminster-abbey.org/about-the-abbey/library-research/,100000000000,E09000033,St James's,E05013806,51.4990043,-0.127394947,530079.0127999997,179447.00229999982,779
Westminster Baptist Church,100 Horseferry Road, ,SW1P 2EE,Westminster,http://www.westminsterbaptistchurch.co.uk/,100000000000,E09000033,St James's,E05013806,51.49499663,-0.131535466,529803.0137999998,178994.00269999914,779
Westminster School Archive,17 Dean's Yard, ,SW1 3PB,Westminster,https://www.westminster.org.uk/about/our-history/archives-and-collections/,10033600108,E09000033,St James's,E05013806,51.49820881,-0.128263203,530021.0130000003,179357.0019000005,779
Wigmore Hall,36 Wigmore Street, ,W1H 0BP,Westminster,https://wigmore-hall.org.uk/,100000000000,E09000033,Marylebone,E05013801,51.51665556,-0.148261914,528581.0118000004,181373.00249999948,779
Zoological Society of London,The Library Zoological Society of London ,Regent's Park ,NW1 4RY,Westminster,https://www.zsl.org/,10033539882,E09000033,Regent's Park,E05013805,51.53572042,-0.155706918,528011.0118000004,183480.0025999993,779
Liberal Jewish Synagogue,28 St John's Wood Road, ,NW8 7HA,Westminster,https://www.ljs.org/,,E09000033,Regent's Park,E05013805,51.52827324,-0.172582487,526861.3627000004,182622.49760000035,779
Iniva Stuart Hall Library ,16 John Islip Street, ,SW1P 4JU,Westminster,https://iniva.org/,,E09000033,Vincent Square,E05013807,51.49048,-0.12929,529971.7153000003,178495.72890000045,779
Delfina Studios,29 / 31 Catherine Place ,,,Westminster,www.delfinafoundation.com,10033631259,E09000033,St James's,E05013806,51.49942723,-0.140978677,529135.0126,179470.00249999948,779
Somerset House Studios,Somerset House,Strand,,Westminster,somersethouse.org.uk,10033582458,E09000033,St James's,E05013806,51.51102034,-0.117952415,530700.0119000003,180800.0022,779
George Studios,136 George Street,,,Westminster,https://www.interimspaces.co.uk/georgestudios,10033592501,E09000033,Marylebone,E05013801,51.51611869,-0.163878723,527499.0119000003,181286.00310000032,779
Great Western Studios,Great Western Studios,65 Alfred Road,,Westminster,https://www.greatwesternstudios.com/,10033617199,E09000033,Westbourne,E05013809,51.52119908,-0.196309173,525235.0126999998,181795.0030000005,779
Kindred Studios,18 Saltram Cresent,,,Westminster,http://kindredstudios.co.uk/new-studios/,100023513379,E09000033,Harrow Road,E05013795,51.52954595,-0.198761663,525042.0126,182719.0033999998,779
Pop Hub Leicester Square,"Floors 1 & 2, 41 Whitcomb Street",,,Westminster,https://www.interimspaces.co.uk/pophub,10033572140,E09000033,St James's,E05013806,51.509447,-0.13099816,529799.2562999995,180601.84930000082,779
"Interrim Spaces, Church Street Studios","First Floor, 382-386 Edgware Road",,,Westminster,https://www.interimspaces.co.uk/projects,10033590236,E09000033,Church Street,E05013794,51.521896,-0.1723489,526895.2873,181913.7410000004,779
The Koppel Project New Bond Street,125 New Bond Street,,,Westminster,https://thekoppelproject.com/studios/new-bond-street,100023476545 ,E09000033,West End,E05013808,51.512492,-0.14495386,528822.2677999996,180915.82129999995,779
ICA,The Mall,St. James's,SW1Y 5AH,Westminster,http://www.osoarts.org.uk/,10033601867,E09000033,St James's,E05013806,51.50671003,-0.130148252,529866.0122999996,180299.00170000084,779
Cineworld Leicester Square ,5-6 Leicester Square,,WC2H 7NA,Westminster,,10091946844,E09000033,St James's,E05013806,51.51081,-0.13046,529832.7259,180754.36999999918,779
Curzon Mayfair,,38 Curzon Street,W1J 7TY,Westminster,,100023476131,E09000033,West End,E05013808,51.506562,-0.14813432,528618.2810000004,180250.80920000002,779
Curzon Soho,,99 Shaftesbury Avenue,W1D 5DY,Westminster,,10091855706,E09000033,West End,E05013808,51.5127,-0.13058,529819.0278000003,180964.32740000077,779
Curzon Victoria,,58 Victoria Street,SW1E 6QW,Westminster,,10033621426,E09000033,St James's,E05013806,51.497714,-0.13683759,529427.2821000004,179286.7968000006,779
Empire Cinema Haymarket ,,63-65 Haymarket,SW1Y 4RL,Westminster,,10033536286,E09000033,St James's,E05013806,51.508757,-0.13230892,529710.2604999999,180522.79880000092,779
Everyman Baker Street,,96-98 Baker St,W1U 6TJ,Westminster,,10033604376,E09000033,Marylebone,E05013801,51.52051,-0.15652,527997.2604,181787.15809999965,779
Everyman Maida Vale,,215 Sutherland Ave,W9 1RU,Westminster,,100023509417,E09000033,Little Venice,E05013799,51.527986,-0.18174976,526226.2889,182574.7162999995,779
Ham Yard Hotel,,1 Ham Yard,W1D 7DT,Westminster,,10033623171,E09000033,West End,E05013808,51.511159,-0.1346174,529543.2586000003,180785.81880000047,779
ICA,,The Mall,SW1Y 5AH,Westminster,,100023349547,E09000033,St James's,E05013806,51.506409,-0.13112246,529799.2621999998,180263.80030000024,779
Imperial College Union Cinema,Imperial College,Beit Quad,SW7 2BB,Westminster,,10033585054,E09000033,Knightsbridge & Belgravia,E05013797,51.50039,-0.17819,526549.6385000004,179512.1327999998,779
Odeon Luxe Haymarket,,11-18 Panton Street,SW1Y 4DP,Westminster,,100023349513,E09000033,St James's,E05013806,51.509514,-0.13126921,529780.2576000001,180608.81949999928,779
Picturehouse Central,,20-24 Shaftesbury Avenue,W1D 7DH,Westminster,,100023472818,E09000033,St James's,E05013806,51.510872,-0.13357707,529616.2598000001,180755.7444000002,779
Prince Charles Cinema,,7 Leicester Place,WC2H 7BY,Westminster,,10033537357,E09000033,St James's,E05013806,51.51144,-0.13019,529849.6700999998,180824.90530000068,779
Regent Street Cinema,,309 Regent Street,W1U 2UW,Westminster,,10033542315,E09000033,West End,E05013808,51.516792,-0.14336665,528920.2610999998,181396.77950000018,779
Soho Hotel,,4 Richmond Mews,W1D 3DH,Westminster,,10033525382,E09000033,West End,E05013808,51.513931,-0.13365382,529602.2547000004,181095.77280000038,779
Vue West End Leicester Square,,Leicester Square,WC2H 7A,Westminster,,100023431525,E09000033,St James's,E05013806,51.511519,-0.12955866,529893.2528999997,180834.8094999995,779
Vue Piccadilly,,19 Lower Regent Street,SW1Y 4LR,Westminster,,10033542264,E09000033,St James's,E05013806,51.508945,-0.13449168,529558.2609999999,180539.84190000035,779
Empire Cinemas Walthamstow,Leicester Square,3 Cranbourn St,WC2H 7AL,Westminster,,100023431525,E09000033,St James's,E05013806,51.511519,-0.12955866,529893.2528999997,180834.8094999995,779
The Cinema at Selfridges,40 Duke Street,,W1U 1AT,Westminster,,,E09000033,West End,E05013808,51.5149,-0.15191,528332.8393000001,181171.3839999996,779
Charlotte Street Hotel,,15-17 Charlotte Street,W1T 1RJ,Westminster,https://www.firmdalehotels.com/hotels/london/charlotte-street-hotel/film-club/,100023467443,E09000033,West End,E05013808,51.518387,-0.13505719,529492.2483999999,181588.8032000009,779
Richard Green 2,33 New Bond Street,,,Westminster,http://www.richard-green.com/#,10033538913,E09000033,West End,E05013808,51.51123753,-0.142044713,529027.6667999998,180781.4428000003,779
Skarstedt Gallery,8 Bennet Street,,,Westminster,http://www.skarstedt.com/#,10033524577,E09000033,St James's,E05013806,51.50660747,-0.13902792,529250.0958000002,180271.8928999994,779
Scream,27 - 28 Eastcastle Street,,,Westminster,http://www.screamlondon.com/#,10033525838,E09000033,West End,E05013808,51.51620658,-0.136950107,529367.0987999998,181342.99300000072,779
Ben Brown Fine Arts,12 Brookâ€™s Mews,,,Westminster,http://www.benbrownfinearts.com/#,10033526904,E09000033,West End,E05013808,51.51189141,-0.144433792,528860.0477999998,180849.94969999976,779
Marlborough Fine Art,6 Albemarle Street,,,Westminster,http://www.marlboroughfineart.com/#,10033528809,E09000033,St James's,E05013806,51.50805031,-0.139271776,529229.0921,180431.90809999965,779
Messum's,28 Cork Street,,,Westminster,http://www.messums.com/#,10033532792,E09000033,West End,E05013808,51.50996577,-0.139827885,529185.0853000004,180643.92860000022,779
Serpentine Gallery,Kensington Gardens,,,Westminster,http://www.serpentinegallery.org/#,10033534401,E09000033,Knightsbridge & Belgravia,E05013797,51.50427907,-0.173406528,526870.8383,179952.8764999993,779
Frith Street Gallery,17-18 Golden Square,,,Westminster,http://www.frithstreetgallery.com/#,10033534803,E09000033,West End,E05013808,51.51068715,-0.135416932,529489.1178000001,180731.93500000052,779
Sprovieri,23 Heddon Street,,,Westminster,http://www.sprovieri.com/london/#,10033536350,E09000033,West End,E05013808,51.51061608,-0.138302438,529289.0960999997,180718.93510000035,779
Berloni,63 Margaret Street,,,Westminster,http://www.berlonigallery.com/#,10033537907,E09000033,West End,E05013808,51.51613516,-0.138682793,529247.0856999997,181331.99230000004,779
Chelsea Space,Chelsea College of Arts,16 John Islip Street,,Westminster,http://www.chelseaspace.org/#,10033538283,E09000033,Vincent Square,E05013807,51.48992522,-0.126655127,530156.2063999996,178438.71380000003,779
Olivier Malingue,1st Floor,143 New Bond St,,Westminster,http://oliviermalingue.com/#,10033538864,E09000033,West End,E05013808,51.5109879,-0.142467085,528999.0640000002,180752.9397,779
Richard Green 1,147 New Bond Street,,,Westminster,http://www.richard-green.com/#,10033538867,E09000033,West End,E05013808,51.51080518,-0.142287149,529012.0656000003,180732.93789999932,779
White Cube,25-26 Masonâ€™s Yard,,,Westminster,http://whitecube.com/#,10033550744,E09000033,St James's,E05013806,51.50710128,-0.135577762,529488.1213999996,180332.89800000004,779
Willow Gallery,40 - 41 Duke Street,St James's,,Westminster,http://www.willowgallery.com/#,10033555200,E09000033,St James's,E05013806,51.50683819,-0.136402051,529431.6655000001,180302.18539999984,779
Blain Southern,4 Hanover Square,,,Westminster,http://www.blainsouthern.com/#,10033556658,E09000033,West End,E05013808,51.51334583,-0.141434251,529064.0686999997,181016.96380000003,779
Albemarle Gallery,49 Albemarle Street,,,Westminster,http://www.albemarlegallery.com/#,10033567550,E09000033,St James's,E05013806,51.5075163,-0.139625012,529206.0900999997,180371.90249999985,779
Rosenfeld Porcini,37 Rathbone Street,,,Westminster,http://rosenfeldporcini.com/#,10033569652,E09000033,West End,E05013808,51.5180099,-0.134411482,529538.1156000001,181548.01099999994,779
Lisson Gallery 1,67 Lisson St,Marylebone,,Westminster,http://www.lissongallery.com/#,10033571495,E09000033,Hyde Park,E05013796,51.52057634,-0.166555495,527300.8684999999,181777.04560000077,779
London Print Studio,425 Harrow Rd,,,Westminster,http://www.londonprintstudio.org.uk/#,10033572217,E09000033,Harrow Road,E05013795,51.52517449,-0.203914024,524696.5778999999,182224.10199999996,779
Eykyn Maclean,30 St George Street,,,Westminster,http://www.eykynmaclean.com/#,10033579746,E09000033,West End,E05013808,51.51187604,-0.1411914,529085.0724999998,180853.94930000044,779
Laurent Delaye Gallery,11 Savile Row,,,Westminster,http://www.laurentdelaye.com/#,10033580791,E09000033,West End,E05013808,51.5104559,-0.13840986,529282.0954,180700.93329999968,779
Pyms Gallery,9 Mount Street,,,Westminster,http://www.pymsgallery.com/#,10033584285,E09000033,West End,E05013808,51.5098081,-0.146910969,528694.0317000002,180613.9280999992,779
Imitate Modern,19 Shepherd Market,,,Westminster,http://imitatemodern.com/#,10033585747,E09000033,West End,E05013808,51.50592343,-0.145238341,528821.0494999997,180184.88790000044,779
Debut Contemporary,82 Westbourne Grove,,,Westminster,http://www.debutcontemporary.com/#,10033585998,E09000033,Bayswater,E05013793,51.51485061,-0.191664496,525574.6858000001,181096.9918000009,779
Mark Gallery,9 Porchester Place,,,Westminster,http://www.markgallery.co.uk/#,10033586949,E09000033,Hyde Park,E05013796,51.51436604,-0.163950904,527498.8962000003,181090.98000000045,779
Halcyon Gallery I,144-146 New Bond Street,,,Westminster,http://www.halcyongallery.com/#,10033587866,E09000033,West End,E05013808,51.51088789,-0.142399088,529004.0647,180741.9383000005,779
PM/AM,259-269 Old Marylebone Road,,,Westminster,http://www.pmam.org/#,10033588738,E09000033,Marylebone,E05013801,51.51772196,-0.165185374,527403.8825000003,181462.01590000093,779
Graham Hunter Gallery,81 Baker Street,,,Westminster,http://www.grahamhuntergallery.co.uk/#,10033590107,E09000033,Marylebone,E05013801,51.5194382,-0.155342499,528081.9549000002,181670.0307,779
Sims Reed Gallery,The Economist Building,30 Bury Street,,Westminster,http://gallery.simsreed.com/#,10033591023,E09000033,St James's,E05013806,51.50638098,-0.137207443,529377.0698999995,180249.92039999925,779
Getty Images Gallery,46 Eastcastle Street,,,Westminster,http://www.gettyimagesgallery.com/#,10033592323,E09000033,West End,E05013808,51.51580253,-0.137557597,529326.0947000002,181296.98939999938,779
Sadie Coles HQ,62 Kingly Street,Mayfair,,Westminster,http://www.sadiecoles.com/#,10033594510,E09000033,West End,E05013808,51.51179933,-0.137490282,529342.1007000003,180851.94769999944,779
Waddington Custot Galleries,11 Cork Street,,,Westminster,http://www.waddingtoncustot.com/#,10033594958,E09000033,West End,E05013808,51.50960001,-0.140015737,529173.0844,180602.9243999999,779
Heartbreak,17 Bulstrode Street,,,Westminster,http://www.heart-break.co.uk/#,10033596047,E09000033,Marylebone,E05013801,51.51712289,-0.14938174,528502.0031000003,181423.00510000065,779
Berrd Jacobson Gallery,6 Cork Street,,,Westminster,http://www.jacobsongallery.com/#,10033601869,E09000033,West End,E05013808,51.51003691,-0.140343849,529149.0812999997,180650.9297000002,779
St Petersburg Gallery,5A Cork St,Mayfair,,Westminster,http://www.saintpetersburggallery.com/#,10033601869,E09000033,West End,E05013808,51.51003691,-0.140343849,529149.0812999997,180650.9297000002,779
Michael Werner Gallery,22 Upper Brook Street,,,Westminster,http://www.michaelwerner.com/#,10033602320,E09000033,West End,E05013808,51.51084502,-0.154493399,528164.9725000001,180715.94150000066,779
Workplace Gallery,61 Conduit Street,,,Westminster,http://www.workplacegallery.co.uk/#,10033604984,E09000033,West End,E05013808,51.51217866,-0.13929091,529216.0866,180890.9517000001,779
Paradise Row,74 Newman Street,,,Westminster,http://www.paradiserow.com/#,10033614774,E09000033,West End,E05013808,51.51711828,-0.1343326,529546.1173999999,181449.00129999965,779
Edel Assanti,74A Newman Street,,,Westminster,http://www.edelassanti.com/#,10033614780,E09000033,West End,E05013808,51.51711828,-0.1343326,529546.1173999999,181449.00129999965,779
Rook & Raven,7 Rathbone Place,,,Westminster,http://www.rookandraven.co.uk/#,10033616135,E09000033,West End,E05013808,51.51631722,-0.131467958,529747.1403000001,181364.9927999992,779
Partners & Mucciaccia,45 Dover Street,,,Westminster,http://partnersandmucciaccia.net/#,10033616760,E09000033,St James's,E05013806,51.50734591,-0.140222845,529165.0857999995,180351.90069999918,779
James Hyman Fine Art,5 Saville Row,,,Westminster,http://www.jameshymanfineart.com/#,10033619032,E09000033,West End,E05013808,51.51009342,-0.138237271,529295.0971999997,180660.9297000002,779
Hauser & Wirth 2,23 Saville Row,,,Westminster,http://www.hauserwirth.com/#,10033621621,E09000033,West End,E05013808,51.511485,-0.139218286,529223.0880000005,180813.94400000013,779
Great Western Studios,65 Alfred Street,,,Westminster,http://www.greatwesternstudios.com/#,10033624231,E09000033,Westbourne,E05013809,51.52068971,-0.194734461,525345.6546,181741.0535000004,779
Aktis Gallery,10-11 Park Place,,,Westminster,http://aktis-gallery.co.uk/#,10033625370,E09000033,St James's,E05013806,51.50574266,-0.13837141,529298.1019000001,180176.8836000003,779
"Pertwee,  Anderson & Gold",15 Bateman Street,,,Westminster,http://www.pertweeandersongold.com/#,10033628259,E09000033,West End,E05013808,51.51345343,-0.130662675,529811.1501000002,181047.96299999952,779
David Gill,2-4 King Street,,,Westminster,http://www.davidgillgallery.com/#,10033629513,E09000033,St James's,E05013806,51.50626107,-0.135338243,529507.1244000001,180239.88910000026,779
Whitfield Fine Art,1st floor,23 Dering Street,,Westminster,http://www.whitfieldfineart.com/#,10033630031,E09000033,West End,E05013808,51.51374527,-0.14394044,528889.0491000004,181056.9693,779
Thomas Dane Gallery,11 Duke Street,,,Westminster,http://www.thomasdanegallery.com/#,10033630669,E09000033,St James's,E05013806,51.50681063,-0.135964335,529462.1189000001,180299.89409999922,779
Victoria Miro Gallery II,14 St George Street,,,Westminster,http://www.victoria-miro.com/#,10033631243,E09000033,West End,E05013808,51.51238451,-0.14206434,529023.0652999999,180908.95380000025,779
Alison Jacques Gallery,16-18 Berners Street,,,Westminster,http://www.alisonjacquesgallery.com/,10033631411,E09000033,West End,E05013808,51.51696659,-0.134973061,529502.1128000002,181431.00060000084,779
Annely Juda Fine Art,4th floor,23 Dering Street,,Westminster,http://www.annelyjudafineart.co.uk/#,10033633944,E09000033,West End,E05013808,51.51374527,-0.14394044,528889.0491000004,181056.9693,779
Gagosian Gallery 2,17-19 Davies Street,,,Westminster,http://www.gagosian.com/#,10033634159,E09000033,West End,E05013808,51.51054271,-0.146160507,528744.0363999996,180696.9364,779
Pace London 1,6 Burlington Gardens,,,Westminster,http://www.pacegallery.com/#,10091853844,E09000033,West End,E05013808,51.50915382,-0.138535006,529277.0963000003,180555.91970000044,779
Asia House,63 New Cavendish Street,,,Westminster,http://asiahouse.org/#,10091858261,E09000033,West End,E05013808,51.51919745,-0.144641359,528825.0362,181662.02600000054,779
Lisson Gallery 2,27 Bell St,Marylebone,,Westminster,http://www.lissongallery.com/#,100022725884,E09000033,Church Street,E05013794,51.52039326,-0.168076534,527195.8573000003,181754.04419999942,779
Rossi & Rossi,"21 Georgian House,",10 Bury Street,,Westminster,http://www.rossirossi.com/#,100022730755,E09000033,St James's,E05013806,51.50628997,-0.136590877,529420.1147999996,180240.88910000026,779
Fiumano Fine Art,27 Conught Street,,,Westminster,http://www.fiumanofineart.com/#,100022738339,E09000033,Hyde Park,E05013796,51.51392473,-0.163910995,527502.8970999997,181041.97509999946,779
John Adams Fine Art,200 Ebury Street,,,Westminster,http://www.johnadamsfineart.com/#,100023346246,E09000033,Knightsbridge & Belgravia,E05013797,51.49045557,-0.151571299,528425.0181999998,178453.72580000013,779
Eleven,11 Eccleston Street,,,Westminster,http://www.elevenfineart.com/#,100023346410,E09000033,Pimlico North,E05013802,51.49382757,-0.146406592,528774.0563000003,178837.76099999994,779
The Osborne Studio Gallery,2 Motcomb Street,,,Westminster,http://www.osg.uk.com/#,100023348455,E09000033,Knightsbridge & Belgravia,E05013797,51.49869392,-0.155013173,528162.9848999996,179363.8139999993,779
La Galleria,30 Royal Opera Arcade,Pall Mall,,Westminster,http://www.lagalleria.org/#,100023349436,E09000033,St James's,E05013806,51.50718811,-0.130299445,529854.1613999996,180351.8967000004,779
GRAD,3-4a Little Portland Street,,,Westminster,http://www.grad-london.com/#,100023466396,E09000033,West End,E05013808,51.51692373,-0.139068675,529218.0817,181419.0014999993,779
Stephen Wiltshire Gallery,5 Royal Opera Arcade,,,Westminster,http://www.stephenwiltshire.co.uk/london_gallery.aspx#,100023349482,E09000033,St James's,E05013806,51.50718677,-0.130491755,529840.8200000003,180351.4068,779
Panter and Hall,27 Bury Street,,,Westminster,http://www.panterandhall.com/#,100023349526,E09000033,St James's,E05013806,51.50661696,-0.131706359,529758.1514999997,180285.89130000025,779
Alan Cristea Gallery,43 Pall Mall,,,Westminster,http://www.alancristea.com/#,100023349532,E09000033,St James's,E05013806,51.50557485,-0.134602456,529560.1309000002,180164.8816999998,779
Malcolm Fairley,40 Bury Street,,,Westminster,http://www.malcolmfairley.com/#,100023349671,E09000033,St James's,E05013806,51.50585856,-0.13660848,529420.1151999999,180192.88480000012,779
Paisnel Gallery,9 Bury Street,,,Westminster,http://www.paisnelgallery.co.uk/#,100023349896,E09000033,St James's,E05013806,51.5062448,-0.136578309,529421.1149000004,180235.8883999996,779
Sladmore,57 Jermyn Street,,,Westminster,http://www.sladmore.com/#,100023349966,E09000033,St James's,E05013806,51.50724689,-0.13794979,529323.1031,180344.8998000007,779
Chris Beetles,8 & 10 Ryder Street,,,Westminster,http://www.chrisbeetles.com/#,100023350002,E09000033,St James's,E05013806,51.50661513,-0.136678491,529413.1136999996,180276.89250000007,779
Atlas Gallery,49 Dorset Street,,,Westminster,http://www.atlasgallery.com/#,100023460982,E09000033,Marylebone,E05013801,51.51899084,-0.153774859,528191.9671999998,181623.02600000054,779
Fashion Space Gallery,London College of Fashion,20 John Princes St,,Westminster,http://www.fashionspacegallery.com/#,100023463131,E09000033,West End,E05013808,51.51513066,-0.141693122,529041.0642999997,181214.98310000077,779
Hay Hill Gallery,35 Baker Street,,,Westminster,http://www.hayhillgallery.com/#,100023463338,E09000033,Marylebone,E05013801,51.51744211,-0.154303249,528159.6552999998,181449.88020000048,779
A&D Gallery,51 Chiltern Street,,,Westminster,http://www.aanddgallery.com/#,100023463458,E09000033,Marylebone,E05013801,51.5194632,-0.154072901,528169.9643999999,181675.03160000034,779
Pi Artworks,55 Eastcastle Street,,,Westminster,http://www.piartworks.com/#,100023466780,E09000033,West End,E05013808,51.51590312,-0.13653005,529397.1024000002,181309.9899000004,779
Pilar Corrias,54 Eastcastle Street,,,Westminster,http://www.pilarcorrias.com/#,100023466935,E09000033,West End,E05013808,51.5158955,-0.136616849,529391.1018000003,181308.98919999972,779
Art First,21 Eastcastle Street,,,Westminster,http://www.artfirst.co.uk/#,100023466981,E09000033,West End,E05013808,51.51630551,-0.136383892,529406.1029000003,181354.99430000037,779
Gallery Libby Sellers,41-42 Berners Street,,,Westminster,http://www.libbysellers.com/#,100023467596,E09000033,West End,E05013808,51.51770347,-0.136067345,529424.1035000002,181511.00850000046,779
Ronchini Gallery,22 Dering Street,,,Westminster,http://www.ronchinigallery.com/#,100023470794,E09000033,West End,E05013808,51.51374527,-0.14394044,528889.0491000004,181056.9693,779
Hauser & Wirth 1,196A Piccadilly,,,Westminster,http://www.hauserwirth.com/#,100023470962,E09000033,St James's,E05013806,51.50823625,-0.135689957,529477.1190999998,180458.90949999914,779
Anthony Reynolds Gallery,60 Great Marlborough Street,,,Westminster,http://www.anthonyreynolds.com/#,100023471398,E09000033,West End,E05013808,51.51408978,-0.135609492,529466.1118000001,181109.97089999914,779
Flowers Gallery Central,21 Cork Street,,,Westminster,http://www.flowersgallery.com/#,100023473240,E09000033,West End,E05013808,51.50962705,-0.13945254,529212.0887000002,180606.92459999956,779
Erskine Hall & Coe,15 Royal Arcade,28 Old Bond St,,Westminster,http://www.erskinehallcoe.com/#,100023473300,E09000033,West End,E05013808,51.50856688,-0.140086644,529171.0851999996,180487.91410000063,779
David Zwimer,24 Grafton Street,,,Westminster,http://www.davidzwirner.com/#,100023473310,E09000033,West End,E05013808,51.50896583,-0.141425169,529077.0745000001,180529.9185000006,779
Colghi,15 Old Bond Street,,,Westminster,http://www.colnaghi.com/#,100023473356,E09000033,West End,E05013808,51.50854951,-0.138992012,529247.0935000004,180487.91330000013,779
Gazelli Art House,39 Dover Street,,,Westminster,http://gazelliarthouse.com/#,100023473417,E09000033,West End,E05013808,51.50781388,-0.140809096,529123.0806999998,180402.9059999995,779
SprÃ¼th Magers,7 Grafton Street,,,Westminster,http://www.spruethmagers.com/#,100023473419,E09000033,West End,E05013808,51.50948124,-0.142168061,529024.0681999996,180585.92390000075,779
D-Contemporary,23 Grafton Street,,,Westminster,http://dcontemporary.com/#,100023473421,E09000033,West End,E05013808,51.50902966,-0.141480221,529073.074,180536.91939999908,779
Erarta Galleries,8 Berkeley Street,,,Westminster,http://www.erartagalleries.com/london.html#,100023473659,E09000033,St James's,E05013806,51.5073958,-0.141099945,529104.0789999999,180355.90240000002,779
Sladmore Contemporary,32 Bruton Place,,,Westminster,http://www.sladmore.com/#,100023473811,E09000033,West End,E05013808,51.5105464,-0.143551607,528925.0563000003,180701.93510000035,779
Lefevre Fine Art,31 Bruton Street,,,Westminster,http://www.lefevrefineart.com/#,100023474091,E09000033,West End,E05013808,51.51012443,-0.143597589,528923.0565,180654.93060000055,779
Sophia Contemporary,11 Grosvenor Street,,,Westminster,http://sophiacontemporary.com/#,100023474136,E09000033,West End,E05013808,51.51165317,-0.144155207,528880.0502000004,180823.9472000003,779
The Fine Art Society,148 New Bond Street,,,Westminster,http://faslondon.com/#,100023474398,E09000033,West End,E05013808,51.5107591,-0.142216958,529017.0662000002,180727.93740000017,779
Gimpel Fils,30 Davies Street,,,Westminster,http://www.gimpelfils.com/#,100023474837,E09000033,West End,E05013808,51.51144217,-0.146167228,528741.0351,180796.9456999991,779
Gallery Ele Shchuki,10 Lees Place,,,Westminster,http://galleryelenashchukina.com/#,100023475032,E09000033,West End,E05013808,51.5116366,-0.15278946,528280.9844000004,180806.94889999926,779
Sadie Coles HQ Davies Street,1 Davies Street,,,Westminster,http://www.sadiecoles.com/#,100023475710,E09000033,West End,E05013808,51.50805762,-0.149965329,528487.0108000003,180413.9110000003,779
Hamiltons Gallery,13 Carlos Place,,,Westminster,http://www.hamiltonsgallery.com/#,100023475924,E09000033,West End,E05013808,51.51011892,-0.148368465,528592.0202000001,180645.9321999997,779
Galeries Bartoux,104 New Bond Street,,,Westminster,http://www.galeries-bartoux.com/en/#,100023476528,E09000033,West End,E05013808,51.51303628,-0.144603469,528845.0449999999,180976.96220000088,779
Salon Contemporary,82 Westbourne Grove,,,Westminster,http://www.saloncontemporary.com/#,100023482451,E09000033,Bayswater,E05013793,51.51485061,-0.191664496,525574.6858000001,181096.9918000009,779
Thomas & Paul,20 Bristol Gardens,,,Westminster,http://www.thomasandpaul.com/#,100023513233,E09000033,Little Venice,E05013799,51.52256197,-0.184352468,526060.7313000001,181967.0702999998,779
ContiniArtUK,105 New Bond Street,,,Westminster,http://www.continiartuk.com/#,100023608426,E09000033,West End,E05013808,51.51295402,-0.144520329,528851.0456999997,180967.9609999992,779
Max Wigram Gallery,106 New Bond Street,,,Westminster,http://www.maxwigram.com/#,100023608426,E09000033,West End,E05013808,51.51295402,-0.144520329,528851.0456999997,180967.9609999992,779
Timothy Taylor Gallery,15 Carlos Place,,,Westminster,http://www.timothytaylorgallery.com/#,100023616387,E09000033,West End,E05013808,51.51009059,-0.148283137,528598.0208999999,180642.9316000007,779
Bischoff/Weiss,14a Hay Hill,,,Westminster,http://www.bischoffweiss.com/#,200002817730,E09000033,West End,E05013808,51.50849929,-0.142063888,529034.0702999998,180476.91339999996,779
Contemporary Applied Arts,6 Paddington Street,W1U 5QG,,Westminster,http://www.caa.org.uk/#,100023463691,E09000033,Marylebone,E05013801,51.520921,-0.15255372,528271.2642000001,181839.80069999956,779
Cardi Gallery London,22 Grafton Street,,,Westminster,https://cardigallery.com/,100023473432,E09000033,West End,E05013808,51.509603,-0.14314012,528956.2721999995,180597.7522,779
Modern Art,7 Bury Street,London,,Westminster,,100023350006,E09000033,St James's,E05013806,51.506691,-0.13811417,529313.2693999996,180282.7940999996,779
Workplace Gallery,40 Margaret Street,W1G 0JH,,Westminster,http://www.workplacegallery.co.uk/#,100023466896,E09000033,West End,E05013808,51.516225,-0.14275555,528964.2603000002,181334.80409999937,779
Paradise Row,2 Bourdon Street,W1K 3PA,,Westminster,http://www.paradiserow.com/#,10033627127,E09000033,West End,E05013808,51.510661,-0.14688727,528693.2734000003,180708.8133000005,779
Edel Assanti,1B Little Titchfield Street,W1W 7BU,,Westminster,http://www.edelassanti.com/#,10033537536,E09000033,West End,E05013808,51.51803,-0.14092365,529086.2571,181538.74939999916,779
Muccaccia Gallery London,21 Dering Street,W1S 1AL,,Westminster,http://partnersandmucciaccia.net/#,10033550603,E09000033,West End,E05013808,51.514255,-0.14554521,528776.2655999996,181110.82939999923,779
James Hyman Fine Art,48 & 50 Maddox Street,W1S 1AY,,Westminster,http://www.jameshymanfineart.com/#,10033613168,E09000033,West End,E05013808,51.512573,-0.14385525,528898.2680000002,180926.7611999996,779
Aktis Gallery,50 Jermyn Street,SW1Y 6LX,,Westminster,http://aktis-gallery.co.uk/#,100023350003,E09000033,St James's,E05013806,51.507933,-0.13875522,529265.2695000004,180419.77449999936,779
Pace London 1,5 Hanover Square,W1S 1HQ,,Westminster,http://www.pacegallery.com/#,10033619140,E09000033,West End,E05013808,51.513919,-0.14309434,528947.2649999997,181077.77740000002,779
Stephen Wiltshire Gallery,22 Palace Court,W2 4HU,,Westminster,http://www.stephenwiltshire.co.uk/london_gallery.aspx#,100023480490,E09000033,Bayswater,E05013793,51.511535,-0.19195961,525563.3234999999,180727.78350000083,779
Panter and Hall,11-12 Pall Mall,SW1Y 5LU,,Westminster,http://www.panterandhall.com/#,100023349526,E09000033,St James's,E05013806,51.507127,-0.13331222,529645.2648999998,180339.76510000043,779
The Fine Art Society,25 Carby Street,W1F 7DE,,Westminster,http://faslondon.com/#,100023471189,E09000033,West End,E05013808,51.513413,-0.13894984,529236.2599999998,181028.81350000016,779
Timothy Taylor Gallery,15 Bolton Street,W1J 8BG,,Westminster,http://www.timothytaylorgallery.com/#,100023476347,E09000033,West End,E05013808,51.507277,-0.14443075,528873.2753999997,180336.82689999975,779
Adrian Sassoon Gallery,14 Rutland Gate,SW7 1BB,,Westminster,http://www.thesassoongallery.co.uk/#,100023377613,E09000033,Knightsbridge & Belgravia,E05013797,51.501174,-0.16868269,527207.3126999997,179615.77930000052,779
Frith Street Gallery Soho Square,60 Frith Street,W1D 3JJ,,Westminster,https://www.frithstreetgallery.com/,100023472257,E09000033,West End,E05013808,51.514213,-0.13215783,529705.2520000003,181129.77940000035,779
Pontone Gallery,74 Newman Street,W1T 3DB,,Westminster,https://pontonegallery.com/,10033614780,E09000033,West End,E05013808,51.517627,-0.1359386,529433.2522999998,181502.7324000001,779
Sadie Coles HQ Brury Street,8 Bury Street,SW1Y 6AB,,Westminster,http://www.sadiecoles.com/#,100023349895,E09000033,St James's,E05013806,51.506691,-0.13811417,529313.2693999996,180282.7940999996,779
Ronchini Gallery,22 Dering Street,W1S 1AN,,Westminster,https://www.ronchinigallery.com/,No UPRN,E09000033,West End,E05013808,51.51416,-0.14626,528726.9384000003,181099.00889999978,779
Eclectic Gallery,16 Newman Street,W1T 1PB,,Westminster,https://eclecticgallery.co.uk/,100023467662,E09000033,West End,E05013808,51.517255,-0.13514665,529489.2515000002,181462.7653000001,779
Eden Gallery,103 New Bond Street,W1S 1ST,,Westminster,https://www.eden-gallery.com/,100023476668,E09000033,West End,E05013808,51.513602,-0.14634997,528722.2684000004,181036.8004999999,779
Delahunty Fine Art,29 Bruton St,W1J 6QP,,Westminster,http://www.delahuntyfineart.com/,100023474061,E09000033,West End,E05013808,51.51078,-0.14473518,528842.2698999997,180725.8292999994,779
Albermarle Gallery,Lower Ground Floor,74 Newman Street,W1T 3DB,Westminster,https://albemarlegallery.com/,10033614780,E09000033,West End,E05013808,51.517627,-0.1359386,529433.2522999998,181502.7324000001,779
Zari Gallery,73 Newman Street,W1T 3EJ,,Westminster,https://zarigallery.co.uk,100023459622,E09000033,West End,E05013808,51.517664,-0.13600915,529428.2527999999,181506.72220000066,779
Tsivrikos Shake,97 New Bond Street,W1S 1SN,,Westminster,https://www.tsivrikosshake.com/,10033598933,E09000033,West End,E05013808,51.513874,-0.14646865,528713.2673000004,181066.8387000002,779
Almine Rech,Broadbent House,Grosvenor Hill,London,Westminster,https://www.alminerech.com/,100023474128,E09000033,West End,E05013808,51.511655,-0.14664516,528707.2725999998,180819.77280000038,779
Dellasposa,2a Bathurst St,Tyburnia,London,Westminster,https://www.dellasposa.com/,100023477996,E09000033,Hyde Park,E05013796,51.512872,-0.17492953,526741.3021,180905.7882000003,779
Belmacz,45 Davies Street,London,,Westminster,http://belmacz.com/,100023474960,E09000033,West End,E05013808,51.512411,-0.14840153,528583.2737999996,180900.75650000013,779
Arcadia Missa,35 Duke Street,London,,Westminster,https://arcadiamissa.com/,10033571076,E09000033,West End,E05013808,51.515025,-0.15159604,528354.2714999998,181185.83430000022,779
Goodman Gallery,26 Cork Street,London,,Westminster,https://www.goodman-gallery.com/,10033640464,E09000033,West End,E05013808,51.510257,-0.14126892,529084.2685000002,180673.77339999937,779
Hazlitt Holland-Hibbert,37-38 Bury Street,London,,Westminster,www.hh-h.com,100023349899,E09000033,St James's,E05013806,51.506479,-0.13835337,529297.2699999996,180258.7971999999,779
Hignell Gallery,12 - 14 Shepherd Street,London,,Westminster,https://hignellgallery.com/,10033623042,E09000033,West End,E05013808,51.506319,-0.14699138,528698.2803999996,180225.7946000006,779
Huxley-Parlour,3-5 Swallow Street,London,,Westminster,https://huxleyparlour.com/,10033625765,E09000033,West End,E05013808,51.509189,-0.13743589,529353.2659999998,180561.77199999988,779
Jack Bell,13 Mason's Yard,London,,Westminster,https://www.jackbellgallery.com/,100023349684,E09000033,St James's,E05013806,51.507762,-0.13704737,529384.2673000004,180403.77410000004,779
JD Malat Gallery,30 Davies Street,London,,Westminster,https://jdmalat.com/,100023474837,E09000033,West End,E05013808,51.511952,-0.14777164,528628.2723000003,180850.82090000063,779
Karsten Schubert London,"Room 2, 44 Lexington Street",London,,Westminster,https://www.karstenschubert.com/,100023470026,E09000033,West End,E05013808,51.513081,-0.13619624,529428.2593999999,180996.75650000013,779
KÖNIG London,259 Old Marylebone Road,London,,Westminster,https://www.koeniggalerie.com/,100023070729,E09000033,Marylebone,E05013801,51.518231,-0.16678788,527291.2839000002,181515.83579999954,779
LAMB,32 St. George Street,London,,Westminster,https://www.lamb-arts.com/,100023469526,E09000033,West End,E05013808,51.512205,-0.1427317,528977.2662000004,180887.81680000015,779
Luxembourg + Co.,2 Savile Row,London,,Westminster,https://luxembourgco.com/,100023473107,E09000033,West End,E05013808,51.510409,-0.13949018,529207.2652000003,180693.81189999916,779
LGDR,22 Old Bond Street,London,,Westminster,https://lgdr.com/,100023473368,E09000033,West End,E05013808,51.509455,-0.14114305,529095.2690000003,180584.81189999916,779
Lyndsey Ingram,20 Bourdon Street,London,,Westminster,https://lyndseyingram.com/,See notes,E09000033,West End,E05013808,51.51115,-0.14527,528804.1158999996,180766.03319999948,779
Maddox Gallery,9 Maddox Street,Mayfair,London,Westminster,https://maddoxgallery.com/,100023470853,E09000033,West End,E05013808,51.51331,-0.14156259,529055.2651000004,181012.7533999998,779
MASSIMODECARLO,55 South Audley Street,London,,Westminster,https://www.massimodecarlo.com/,100023475695,E09000033,West End,E05013808,51.509755,-0.1521696,528329.2810000004,180598.79800000042,779
Mazzoleni,15 Old Bond St,London,,Westminster,https://mazzoleniart.com/,100023473356,E09000033,West End,E05013808,51.50906,-0.14059713,529134.2675000001,180541.8496000003,779
hmad Projects,2 Cork St,London,,Westminster,https://nahmadprojects.com/,10033547503,E09000033,West End,E05013808,51.510547,-0.14194887,529036.2676999997,180704.82379999943,779
Opera Gallery,134 New Bond Street,London,,Westminster,https://www.operagallery.com/,100023476548,E09000033,West End,E05013808,51.511972,-0.14447058,528857.2677999996,180858.84669999965,779
Parafin Gallery,18 Woodstock Street,London,,Westminster,http://parafin.co.uk/,100023469717,E09000033,West End,E05013808,51.513926,-0.14748981,528642.2681999998,181070.82729999907,779
Patrick Heide Contemporary Art,11 Church Street,London,,Westminster,https://www.patrickheide.com/,100022735483,E09000033,Church Street,E05013794,51.524383,-0.16864545,527145.2795000002,182196.7226999998,779
Pippy Houldsworth Gallery,6 Heddon Street,London,,Westminster,https://www.houldsworth.co.uk/,100023470637,E09000033,West End,E05013808,51.511055,-0.13942061,529210.2653999999,180765.7706000004,779
Richard Saltoun Gallery,41 Dover Street,London,,Westminster,https://www.richardsaltoun.com/,100023473379,E09000033,West End,E05013808,51.50805,-0.14212252,529031.2706000004,180426.84860000014,779
Rodeo,12a Bourdon Street,London,,Westminster,https://rodeo-gallery.com/,100023474156,E09000033,West End,E05013808,51.51093,-0.14568023,528776.2708,180740.8476999998,779
Simon Lee Gallery,12 Berkeley Street,London,,Westminster,https://www.simonleegallery.com/,100023473526,E09000033,West End,E05013808,51.508216,-0.14298037,528971.2729000002,180443.79729999974,779
Stephen Friedman Gallery,25-28 Old Burlington Street,London,,Westminster,https://www.stephenfriedman.com/,100023473210,E09000033,West End,E05013808,51.510608,-0.14125465,529084.2669000002,180712.83019999973,779
Stern Pissarro Gallery,66 St. James's Street,London,,Westminster,,100023336904,E09000033,St James's,E05013806,51.506071,-0.13924901,529236.2706000004,180211.84679999948,779
Thaddeus Ropac,Ely House,37 Dover Street,,Westminster,https://ropac.net/,100023473416,E09000033,West End,E05013808,51.508497,-0.14253664,529001.2713000001,180475.82609999925,779
Fitztrovia Chapel,Fitzroy Place,2 Pearson Square,,Westminster,https://www.fitzroviachapel.org/,10033628103,E09000033,West End,E05013808,51.518969,-0.13833416,529263.2529999996,181647.73409999907,779
The Gallery of Everything,4 Chiltern Street,,,Westminster,https://www.gallevery.com/,100023463187,E09000033,Marylebone,E05013801,51.518587,-0.15455076,528139.2708999999,181576.76070000045,779
TJ Boulting,59 Riding House Street,,,Westminster,https://www.tjboulting.com/,100023620820,E09000033,West End,E05013808,51.519301,-0.13940168,529188.2528999997,181682.76960000023,779
Vigo Gallery,7-8 Masons Yard,St. James's,,Westminster,https://www.vigogallery.com/,10033538227,E09000033,St James's,E05013806,51.507811,-0.13730475,529366.2680000002,180408.7684000004,779
Unit London,3 Hanover Square,Mayfair,,Westminster,https://unitlondon.com/,100023469499,E09000033,West End,E05013808,51.513457,-0.14289693,528962.2664999999,181026.74990000017,779
Alice Black,46 Mortimer St,London,,Westminster,https://www.aliceblackart.com/,100023466831,E09000033,West End,E05013808,51.517909,-0.14065473,529105.2562999995,181525.76799999923,779
Addis Fine Art,21 Eastcastle St,London,,Westminster,https://addisfineart.com/,100023466981,E09000033,West End,E05013808,51.516815,-0.13798962,529293.2540999996,181408.8147,779
Amanda Wilkinson Gallery,"1st Floor, 18 Brewer St",London,,Westminster,https://amandawilkinsongallery.com/,100023470041,E09000033,West End,E05013808,51.51235,-0.13430933,529561.2570000002,180918.8041999992,779
3812 Gallery,21 Ryder Street,,,Westminster,https://www.3812gallery.com/,100023350004,E09000033,St James's,E05013806,51.5066,-0.13857901,529281.2692,180271.85429999977,779
Ben Hunter,44 Duke Street,London,,Westminster,https://www.benhunter.gallery/,10033533700,E09000033,St James's,E05013806,51.506981,-0.13768445,529342.2690000003,180315.8010000009,779
Darren Flook/Freehouse,106 Great Portland St.,London,,Westminster,https://freehouse54.com/,100023466457,E09000033,West End,E05013808,51.519292,-0.14221278,528993.2549999999,181676.8144000005,779
Galerie Max Hetzler,"First Floor, 41 Dover Street
",London,,Westminster,www.maxhetzler.com,See notes,E09000033,West End,E05013808,51.5081,-0.14205,529036.1617999999,180432.53639999963,779
Holtermann Fine Art,30 Cork Street,London,,Westminster,https://www.holtermannfineart.com/,10033572344,E09000033,West End,E05013808,51.510531,-0.14151718,529066.2676999997,180703.80509999953,779
Josh Lilley,40-46 Riding House Street,London,,Westminster,https://joshlilleygallery.com/,100023468646,E09000033,West End,E05013808,51.519056,-0.13928193,529197.2538000001,181655.73650000058,779
LUNGLEY Gallery,2nd Floor,53 Great Portland Street,,Westminster,https://lungleygallery.com/,100023466648,E09000033,West End,E05013808,51.517477,-0.14176774,529029.2581000002,181475.76779999956,779
Maximilian William ,47 Mortimer Street,London,,Westminster,https://maximillianwilliam.com/,10033604688,E09000033,West End,E05013808,51.517823,-0.13918806,529207.2545999996,181518.7907999996,779
Niru Ratm,"First Floor, 23 Ganton Street",London,,Westminster,www.niruratnam.com,100023471033,E09000033,West End,E05013808,51.512796,-0.13920555,529220.2630000003,180959.75129999965,779
No.9 Cork Street,9 Cork Street,London,,Westminster,https://www.frieze.com/no9-cork-street,10033647382,E09000033,West End,E05013808,51.510235,-0.14158686,529062.2688999996,180670.7667999994,779
PATERSON ZEVI,"Flat 1, 41 Davies Street",London,,Westminster,https://patersonzevi.com/,No UPRN,E09000033,West End,E05013808,51.51226,-0.14836,528586.5805000002,180884.03800000064,779
Pilar Corrias Savile Row,2 Savile Row,W1S 3PA,,Westminster,http://www.pilarcorrias.com/#,100023473107,E09000033,West End,E05013808,51.510409,-0.13949018,529207.2652000003,180693.81189999916,779
Saatchi Yates,6 Cork Street,London,,Westminster,https://saatchiyates.com/,100023473145,E09000033,West End,E05013808,51.51034,-0.14195728,529036.2687999997,180681.7904000003,779
The Artist Room,"Floor 3, 76 Brewer St",London,,Westminster,https://theartistroom.com/,100023470055,E09000033,West End,E05013808,51.511005,-0.13679981,529392.2607000005,180764.83660000004,779
Farrells Creative Hub,Farrells Creative Hub,,Penfold Street,Westminster,https://hubblehq.com/office-space/2955/farrells-creative-hub-paddington,10033594009,E09000033,Church Street,E05013794,51.52296068,-0.171808369,526929.8257999998,182033.07200000063,779
Sohost,Sohost,8 Berwick Street,,Westminster,www.hostsoho.com,100023471706,E09000033,West End,E05013808,51.51270638,-0.132884143,529659.1343,180960.95580000058,779
Small Works Victoria,Block A Peabody Vauxhall Estate,Vauxhall Bridge Rd,,Westminster,https://www.clear-village.org/projects/smallworks/victoria,10033544929 ,E09000033,Vincent Square,E05013807,51.493905,-0.13990291,529225.2899000002,178857.82169999927,779
Somerset House Trust,Exchange (Somerset House),Somerset House,,Westminster,www.somersethouse.org.uk/work/office-space,100023432985,E09000033,St James's,E05013806,51.511019,-0.117978,530698.2403999995,180799.80749999918,779
Soho Works Dean Street,72-74 Dean Street,Soho,London,Westminster,https://www.sohohouse.com/soho-works/dean-street,100023472095,E09000033,West End,E05013808,51.513904,-0.13307844,529642.2536000004,181093.78859999962,779
Soho Works 180 Strand,180 Strand ,London,,Westminster,https://www.sohohouse.com/soho-works/180-strand,100023433029,E09000033,St James's,E05013806,51.512421,-0.11510992,530893.2348999996,180960.8320000004,779
Somerset House Trust,Exchange (Somerset House),Somerset House,,Westminster,www.somersethouse.org.uk/work/office-space,100023432985,E09000033,St James's,E05013806,51.51050867,-0.116370226,530811.2627999997,180745.9282000009,779
George Studios,136 George Street,,,Westminster,https://www.interimspaces.co.uk/georgestudios,100023462126,E09000033,Marylebone,E05013801,51.51560828,-0.162300929,527609.9071000004,181231.99230000004,779
Great Western Studios,Great Western Studios,Great Western Studios,65 Alfred Road,Westminster,https://www.greatwesternstudios.com/,100023515713,E09000033,Westbourne,E05013809,51.52322493,-0.199939601,524977.6113,182014.0809000004,779
The Cockpit,Gateforth Street,,,Westminster,www.thecockpit.org.uk,100023121790,E09000033,Church Street,E05013794,51.524496,-0.16950587,527085.2788000004,182207.7951999996,779
Ebury Edge ,Edgson House,43 Ebury Bridge Road,,Westminster,https://www.eburyedge.com/,100023619960 ,E09000033,Knightsbridge & Belgravia,E05013797,51.489235,-0.14991685,528543.301,178320.89780000038,779
Palace Theatre,Shaftesbury Avenue,,,Westminster,https://www.nimaxtheatres.com/theatres/palace-theatre/,10033553103,E09000033,West End,E05013808,51.51308657,-0.129627602,529884.0118000004,181009.00269999914,779
Freed of London,94 St Martins Lane,,,Westminster,https://www.freedoflondon.com/,10033553950,E09000033,St James's,E05013806,51.51065608,-0.127219602,530058.0119000003,180743.0022,779
Apollo Victoria Theatre,17 Wilton Rd,,,Westminster,http://www.apollovictoriatheatre.org/about-us/,100023340605,E09000033,Pimlico North,E05013802,51.49577576,-0.142654424,529029.0137,179061.0030000005,779
Canal Cafe Theatre,13 Westbourne Terrace Rd,,,Westminster,https://canalcafetheatre.com/contact,100022819209,E09000033,Westbourne,E05013809,51.52103082,-0.184236365,526073.0127999997,181797.00320000015,779
Charing Cross Theatre,The Arches,Villiers St,,Westminster,http://www.charingcrosstheatre.co.uk,10033582545,E09000033,St James's,E05013806,51.50808822,-0.124096963,530282.0122999996,180463.00249999948,779
ICA,Nash House,,,Westminster,www.ica.art/venue-hire/,100023349637,E09000033,St James's,E05013806,51.50638923,-0.130896308,529815.0122999996,180262.0025999993,779
London Palladium,1-4 Argyll Street,,,Westminster,http://www.reallyusefultheatres.co.uk/our-theatres/london-palladium/,10033529083,E09000033,West End,E05013808,51.51436,-0.14022,529145.4522000002,181131.88099999912,779
Lyceum Theatre,21 Wellington Street,,,Westminster,http://www.lyceum-theatre.co.uk,10033572107,E09000033,St James's,E05013806,51.51142368,-0.120111955,530549.0118000004,180841.00310000032,779
Noel Coward Theatre,85-88 St Martin's Lane,,,Westminster,,100023432653,E09000033,St James's,E05013806,51.51110956,-0.127460405,530040.0118000004,180793.0022,779
Peacock Theatre,4 Portugal Street,,,Westminster,http://peacocktheatre.com,100023430213,E09000033,St James's,E05013806,51.51462706,-0.117991055,530687.0118000004,181201.0030000005,779
Piccadilly Theatre,16 Denman Theatre,,,Westminster,http://www.piccadillytheatre.org,100023472891,E09000033,West End,E05013808,51.51105578,-0.135374572,529491.0121999998,180773.0019000005,779
Playhouse Theatre,Northumberland Avenue,,,Westminster,http://www.playhousetheatrelondon.com/tickets/,100023432701,E09000033,St James's,E05013806,51.50696648,-0.12368193,530314.0122999996,180339.0022,779
Royal Opera House - The Linbury Studio Theatre and Fo,35-36 Bow Street,,,Westminster,http://www.roh.org.uk,10033547198,E09000033,St James's,E05013806,51.51304711,-0.122653705,530368.0115999999,181017.00320000015,779
Rudolf Steiner House,35 Park Road,,,Westminster,http://www.rsh.anth.org.uk,200001772116,E09000033,Regent's Park,E05013805,51.52489743,-0.160555743,527705.0121999998,182268.00290000066,779
Savoy Theatre,2 Savoy Court,,,Westminster,http://www.savoytheatre.org,100023612110,E09000033,St James's,E05013806,51.51016784,-0.12086983,530500.0120000001,180700.0022,779
 Phoenix Arts Club,1 Phoenix Street,,,Westminster,http://www.phoenixartistclub.com,10033531800,E09000033,St James's,E05013806,51.50959927,-0.128617607,529964.0120999999,180623.00269999914,779
The Royal Albert Hall,9 Kensington Gore,,,Westminster,https://www.royalalberthall.com,100023378047,E09000033,Knightsbridge & Belgravia,E05013797,51.50126863,-0.17751559,526594.0120999999,179611.00290000066,779
Theatre Royal Drury Lane,Catherine St,,,Westminster,http://www.reallyusefultheatres.co.uk/our-theatres/theatre-royal?utm_source=theatreroyalboxoffice.co.uk,10033555899,E09000033,St James's,E05013806,51.51287517,-0.120340416,530529.0116999997,181002.00280000083,779
The Other Palace,12 Palace Street,,,Westminster,https://www.theotherpalace.co.uk,10033568019,E09000033,St James's,E05013806,51.49871015,-0.142261336,529048.0127999997,179388.00239999965,779
St John's Smith Square,St John's Smith Square,,,Westminster,https://www.sjss.org.uk,10033557786,E09000033,St James's,E05013806,51.49590593,-0.127089782,530109.0135000004,179103.00290000066,779
Theatre Royal Haymarket,18 Suffolk Street,,,Westminster,http://www.trh.co.uk,100023605397,E09000033,St James's,E05013806,51.50863453,-0.131279929,529782.0121999998,180511.00249999948,779
Church Hall of the Church of the Holy Apostles,47 Cumberland Street,,,Westminster,http://www.holyapostlespimlico.org,10033527293,E09000033,Pimlico South,E05013803,51.4884578,-0.143355213,529001.0142999999,178246.00320000015,779
Adelphi Theatre,Strand,,,Westminster,http://www.reallyusefultheatres.co.uk/our-theatres/adelphi/,10033579363,E09000033,St James's,E05013806,51.51006,-0.12287,530361.5281999996,180684.4489999991,779
Apollo Theatre,31 Shaftesbury Avenue,,,Westminster,https://www.nimaxtheatres.com/apollo-theatre/,10033548808,E09000033,West End,E05013808,51.5115007,-0.13338199,529628.0120999999,180826.00170000084,779
Soho Theatre,21 Dean Street,,,Westminster,http://www.sohotheatre.com,100023472522,E09000033,West End,E05013808,51.51450305,-0.132740339,529664.0119000003,181161.00200000033,779
Danceworks,16 Balderton Street,,,Westminster,http://danceworks.net,100023474423,E09000033,West End,E05013808,51.51318751,-0.152452465,528300.0115999999,180980.00239999965,779
The Saw Swee Hock Centre - Weston Studio,1 Portugal Street,,,Westminster,https://sawsweehockcentre.com,10033621876,E09000033,St James's,E05013806,51.51463833,-0.117572622,530716.0116999997,181203.00280000083,779
Dance Umbrella - Somerset House, Somerset House,West Wing,Strand,Westminster,http://www.danceumbrella.co.uk,100023432985,E09000033,St James's,E05013806,51.51102034,-0.117952415,530700.0119000003,180800.0022,779
Arts Theatre,6-7 Great Newport Street,,,Westminster,https://artstheatrewestend.co.uk,100023431531,E09000033,St James's,E05013806,51.51211816,-0.127548734,530031.0116999997,180905.00269999914,779
Cockpit Theatre,5 Gateforth Street,,,Westminster,http://www.thecockpit.org.uk,100023121790,E09000033,Church Street,E05013794,51.52449748,-0.169480819,527087.0124000004,182208.00320000015,779
Lyric Theatre,29 Shaftesbury Avenue,,,Westminster,https://www.nimaxtheatres.com/lyric-theatre/,100023472887,E09000033,West End,E05013808,51.51127346,-0.133794809,529600.0121999998,180800.00200000033,779
Aldwych Theatre,49 Aldwych,,,Westminster,https://www.nederlander.co.uk/aldwych-theatre,100023430368,E09000033,St James's,E05013806,51.51307629,-0.118862085,530631.0116999997,181027.00269999914,779
Trafalgar Studios (previously the Whitehall),14 Whitehall,,,Westminster,http://trafalgarentertainment.com,100023336992,E09000033,St James's,E05013806,51.50663365,-0.127615185,530042.0124000004,180295.00180000067,779
Vaudeville Theatre,404 Strand,,,Westminster,https://www.nimaxtheatres.com/vaudeville-theatre/,10033544051,E09000033,St James's,E05013806,51.51034645,-0.122476552,530388.0119000003,180717.00269999914,779
Her Majesty's Theatre,57 Haymarket,,,Westminster,,100023349365,E09000033,St James's,E05013806,51.50812453,-0.13200693,529733.0121999998,180453.00229999982,779
Leicester Square Theatre,6 Leicester Place,,,Westminster,http://www.leicestersquaretheatre.com,100023431690,E09000033,St James's,E05013806,51.5113401,-0.130073873,529858.0119000003,180814.0022,779
London Coliseum,St Martin's Lane,,,Westminster,https://londoncoliseum.org/,100023432456,E09000033,St James's,E05013806,51.509911,-0.12629557,530124.2521000002,180661.78959999979,779
Greenside Community Centre,24 Lilestone Street,,,Westminster,https://www.westminster.gov.uk/leisure-libraries-and-community/community-halls/greenside-community-centr,10033625021,E09000033,Church Street,E05013794,51.52533462,-0.166303379,527305.0924000004,182306.6129999999,779
Paddington Arts,32 Woodfield Road,,,Westminster,http://www.paddingtonarts.org.uk,100023513124,E09000033,Westbourne,E05013809,51.52306591,-0.200170735,524962.0125000002,181996.00310000032,779
Raindance Rehearsal Studios,10 Craven Street,,,Westminster,https://www.raindance.org/london/,10033627452,E09000033,St James's,E05013806,51.50763226,-0.125372442,530194.8022999996,180410.03170000017,779
Sylvia Young Theatre Group,1 Nutford Place,,,Westminster,http://www.syts.co.uk/page/default.asp?title=Home&pid=1,100023462125,E09000033,Marylebone,E05013801,51.517151,-0.162612043,527584.0119000003,181403.00329999998,779
Westminster St Peter's Eaton Square Primary School,2 Lower Belgrave Stree,,,Westminster,http://www.stpeaton.org.uk,100023345193,E09000033,Knightsbridge & Belgravia,E05013797,51.49612109,-0.146861589,528736.0133999996,179092.0033999998,779
Pineapple Dance Studios,7 Langley Street,,,Westminster,https://www.pineapple.uk.com,10033583532,E09000033,St James's,E05013806,51.51341947,-0.125131723,530195.0115999999,181054.00280000083,779
Stone Nest,136 Shaftesbury Avenue,,,Westminster,http://welshchapel.com,10033599479,E09000033,St James's,E05013806,51.51294648,-0.129301863,529907.0116999997,180994.00210000016,779
Frame 2 Queens Park ,27 Beethoven Street,,,Westminster,https://moveyourframe.com/pages/private-hire,100023000000,E09000033,Queen's Park,E05013804,51.5316193,-0.20966624,524280.01219999976,182931.00210000016,779
Frame Victoria ,4 Bridge Place ,,,Westminster,https://moveyourframe.com/pages/private-hire,10033603232,E09000033,Pimlico North,E05013802,51.49420724,-0.142415676,529050.0138999997,178887.00239999965,779
Frame Fitzrovia ,Berners Street,,,Westminster,https://moveyourframe.com/pages/private-hire,10033643615,E09000033,West End,E05013808,51.5184036,-0.137121112,529349.0115999999,181587.00239999965,779
Soho Theatre,21 Dean Street,,,Westminster,http://www.sohotheatre.com,100023472522,E09000033,West End,E05013808,51.51450305,-0.132740339,529664.0119000003,181161.00200000033,779
Danceworks,16 Balderton Street,,,Westminster,http://danceworks.net,100023474423,E09000033,West End,E05013808,51.51318751,-0.152452465,528300.0115999999,180980.00239999965,779
The Saw Swee Hock Centre - Weston Studio,1 Portugal Street,,,Westminster,https://sawsweehockcentre.com,10033621876,E09000033,St James's,E05013806,51.51463833,-0.117572622,530716.0116999997,181203.00280000083,779
Dance Umbrella - Somerset House, Somerset House,West Wing,,Westminster,http://www.danceumbrella.co.uk,100023432985,E09000033,St James's,E05013806,51.51102034,-0.117952415,530700.0119000003,180800.0022,779
Arts Theatre,6-7 Great Newport Street,,,Westminster,https://artstheatrewestend.co.uk,100023431531,E09000033,St James's,E05013806,51.51211816,-0.127548734,530031.0116999997,180905.00269999914,779
Cockpit Theatre,5 Gateforth Street,,,Westminster,http://www.thecockpit.org.uk,100023121790,E09000033,Church Street,E05013794,51.52449748,-0.169480819,527087.0124000004,182208.00320000015,779
Lyric Theatre,29 Shaftesbury Avenue,,,Westminster,https://www.nimaxtheatres.com/lyric-theatre/,100023472887,E09000033,West End,E05013808,51.51127346,-0.133794809,529600.0121999998,180800.00200000033,779
Aldwych Theatre,49 Aldwych,,,Westminster,https://www.nederlander.co.uk/aldwych-theatre,100023430368,E09000033,St James's,E05013806,51.51307629,-0.118862085,530631.0116999997,181027.00269999914,779
Trafalgar Studios (previously the Whitehall),14 Whitehall,,,Westminster,http://trafalgarentertainment.com,100023336992,E09000033,St James's,E05013806,51.50663365,-0.127615185,530042.0124000004,180295.00180000067,779
Vaudeville Theatre,404 Strand,,,Westminster,https://www.nimaxtheatres.com/vaudeville-theatre/,10033544051,E09000033,St James's,E05013806,51.51034645,-0.122476552,530388.0119000003,180717.00269999914,779
Her Majesty's Theatre,57 Haymarket,,,Westminster,,100023349365,E09000033,St James's,E05013806,51.50812453,-0.13200693,529733.0121999998,180453.00229999982,779
Leicester Square Theatre,6 Leicester Place,,,Westminster,http://www.leicestersquaretheatre.com,100023431690,E09000033,St James's,E05013806,51.5113401,-0.130073873,529858.0119000003,180814.0022,779
Rudolf  Steiner House,Eurythmy Room ,"Top flloor,  35 Park Road",,Westminster,https://www.rsh.anth.org.uk/eurythmy-room/,200001772116,E09000033,Regent's Park,E05013805,51.524896,-0.16058095,527703.2676999997,182267.79990000091,779
St Stephen's Church,Napier Hall,15B Vincent Square,London,Westminster,http://www.sswsj.org/venue-hire.html,100023340093,E09000033,Vincent Square,E05013807,51.492509,-0.13356368,529669.2840999998,178713.78419999965,779
Fitztrovia Community Centre,2 Foley Street,,,Westminster,https://www.fitzroviacommunitycentre.org/room-hire,10033619463,E09000033,West End,E05013808,51.520181,-0.13877482,529229.2516999999,181781.73259999976,779
Vintage and Floral Ltd,4th Floor Rex House,4-12 Regent Street,,Westminster,http://www.vintageandfloral.com/,10033542654,E09000033,St James's,E05013806,51.50847561,-0.133159835,529652.0122999996,180490.00159999914,779
Grosvenor Shirts,18-19 Jermyn Street,,,Westminster,http://www.grosvenorshirts.com/,10033620327,E09000033,St James's,E05013806,51.50913249,-0.134977719,529524.0022999998,180559.8314999994,779
Tanya Dimitrova Ltd,Units 9 & 10 Lancefield Studios,1A Beethoven Street,,Westminster,http://www.tanyadimitrova.com/,10033524203,E09000033,Queen's Park,E05013804,51.53083071,-0.207491292,524433.0122999996,182847.00229999982,779
Pop Hub Leicester Square,"41 Whitcomb St., London WC2H 7DT",,,Westminster,https://www.interimspaces.co.uk/pophub,10033572140,E09000033,St James's,E05013806,51.509447,-0.13099816,529799.2562999995,180601.84930000082,779
Griffin of London Limited,42 South Molton Street London W1K 5RR,,,Westminster,https://www.griffinoflondon.com/,100023474786,E09000033,West End,E05013808,51.51408,-0.14835,528582.1509999996,181086.4419999998,779
B.E.S.T. Designs Limited,2nd 34-36 Maddox Street,,,Westminster,https://www.bestdesignsltd.com/,10033537743,E09000033,West End,E05013808,51.51235772,-0.140941173,529101.0738000004,180907.95370000042,779
Completed Works Limited,First Floor,1 Park Road,,Westminster,https://completedworks.com/,100023618554,E09000033,Regent's Park,E05013805,51.52349487,-0.157096009,527948.9364,182118.07410000078,779
Geoffrey Turk Limited,15 Bateman Street,,,Westminster,http://turkjewels.com/,100023598018,E09000033,West End,E05013808,51.51345343,-0.130662675,529811.1501000002,181047.96299999952,779
Solange Azagury Limited,"27 Chilworth Street, London, W2 3HA",,,Westminster,https://solange.co.uk/,100023480195,E09000033,Lancaster Gate,E05013798,51.51468,-0.18074,526333.1350999996,181096.8038999997,779
Great Western Studios,65 Alfred Road,,,Westminster,https://www.greatwesternstudios.com/,100023515713,E09000033,Westbourne,E05013809,51.523732,-0.20153838,524865.3159999996,182067.74129999988,779
Andrew Chappell Limited,"47 Lexington Street, London, England, W1F 9AW",,,Westminster,http://chappelljewellery.com/,100023470078,E09000033,West End,E05013808,51.51305,-0.13650017,529407.2588,180992.77229999937,779
Completed Works Limited,69a Lisson Street London NW1 5DA,,,Westminster,https://completedworks.com/,100022774188,E09000033,Church Street,E05013794,51.521176,-0.16828401,527179.2838000003,181840.7259999998,779
Vanleles Diamonds Ltd,76 Brook Street London W1K 5EE,,,Westminster,https://www.vanleles.com/,100023599330,E09000033,West End,E05013808,51.512676,-0.14921228,528526.2729000002,180928.8019999992,779
Andrew Chappell Limited,167 New Bond Street,,,Westminster,http://www.chappelljewellery.com,100023474394,E09000033,West End,E05013808,51.50953054,-0.1407392,529123.0789999999,180593.92380000092,779
Graff Diamonds Limited,28-29 Albemarle Street,,,Westminster,http://www.graffdiamonds.com,100023473482,E09000033,West End,E05013808,51.50892189,-0.14092252,529112.0784,180525.91809999943,779
Laura Lee Jewellery Limited,42 Monmouth Street,,,Westminster,http://www.lauraleejewellery.co.uk,5088385,E09000033,St James's,E05013806,51.51278945,-0.125688299,530158.1886999998,180982.95490000024,779
Vanleles Diamonds Ltd,Second Floor,174 New Bond Street,,Westminster,http://www.vanleles.com,10091966787,E09000033,West End,E05013808,51.50924667,-0.14041927,529146.0817999998,180562.92109999992,779
Rowan Davis Jewellery Ltd,1a Duke Street,,,Westminster,http://www.rowandavis.com,100023464472,E09000033,West End,E05013808,51.51587561,-0.150700793,528413.9946999997,181281.9924999997,779
Circa the Club ,Hungerford House,"Victoria Embankment
",WC2N 6PA,Westminster,,,E09000033,West End,E05013808,51.51483395,-0.133849342,529586.1266999999,181195.83589999937,779
The City of Quebec,12 Old Quebec Street,Marylebone,W1H 7AF,Westminster,,10033584576,E09000033,West End,E05013808,51.51404376,-0.157256541,527964.2792999996,181066.81530000083,779
Duke of Wellington,77 Wardour Street,,W1D 6QA,Westminster,,,E09000033,West End,E05013808,51.51230637,-0.133259059,529634.2555999998,180915.81069999933,779
G-A-Y Bar,30 Old Compton Street,,W1D 4UR,Westminster,,,E09000033,West End,E05013808,51.51352179,-0.131090787,529781.2514000004,181054.8060999997,779
Halfway to Heaven,7 Duncannon Street,,WC2N 4JF,Westminster,,,E09000033,St James's,E05013806,51.50847428,-0.126412169,530120.2534999996,180501.8178000003,779
Heaven,11 The Arches,Villiers Street,WC2N 6NG,Westminster,,10033544602,E09000033,St James's,E05013806,51.50808696,-0.124122388,530280.2516000001,180462.81709999964,779
The King's Arms,23 Poland Street,,W1F 8QL,Westminster,,,E09000033,West End,E05013808,51.51521074,-0.137204693,529352.2556999996,181231.80480000004,779
Admiral Duncan,54 Old Compton Street,,W1D 4UD,Westminster,http://www.admiral-duncan.co.uk,10033630960,E09000033,West End,E05013808,51.51288458,-0.132298646,529699.2536000004,180981.8083999995,779
Circa,62 Frith Street,Soho,W1D 3JN,Westminster,http://www.circasoho.com/biography/,,E09000033,West End,E05013808,51.51432291,-0.132268639,529697.2515000002,181141.8052999992,779
Comptons of Soho,51-53 Old Compton Street,,W1D 6HN,Westminster,http://www.faucetinn.com/comptons/about/,,E09000033,West End,E05013808,51.51256542,-0.132585525,529680.2544,180945.8094999995,779
Freedom,60-66 Wardour Street,Soho,W1F 0TA,Westminster,http://freedombarsoho.com/,,E09000033,West End,E05013808,51.51332916,-0.134985562,529511.5592999998,181026.49210000038,779
G-A-Y Late,5 Goslett Yard,,WC2H 0EA,Westminster,http://www.g-a-y.co.uk,10033624704,E09000033,West End,E05013808,51.51514631,-0.130894581,529790.2488000002,181235.8021000009,779
Molly Moggs,2 Old Compton Street,Soho,W1D 4TA,Westminster,https://www.facebook.com/MollyMoggsSoho/,,E09000033,West End,E05013808,51.51390745,-0.129681074,529877.9675000003,181100.1905000005,779
Muse Soho,23 Frith Street,,W1D 4RR,Westminster,http://www.musesoho.com,10033551216,E09000033,West End,E05013808,51.51335864,-0.131197554,529774.3069000002,181036.47450000048,779
Ku Bar  (including Klub and Lounge),30 Lisle Street,,WC2H 7BA,Westminster,http://www.ku-bar.co.uk,10033629186,E09000033,St James's,E05013806,51.51177592,-0.129879608,529870.2525000004,180862.81020000018,779
Little Ku,25 Frith Street,Soho,WC1D 5LB,Westminster,http://www.ku-bar.co.uk,,E09000033,West End,E05013808,51.513083,-0.131034,529786.4382999996,181006.11290000007,779
Retro Bar,2 George Court,,WC2N 6HH,Westminster,http://www.retrobarlondon.co.uk,,E09000033,St James's,E05013806,51.50913079,-0.123603957,530313.2494999999,180579.81409999914,779
Rupert Street,50 Rupert Street,(Winnett St),W1D 6DR,Westminster,http://www.rupert-street.com,,E09000033,West End,E05013808,51.51217569,-0.133523812,529616.256,180900.81039999984,779
She Soho,23a Old Compton Street,Soho,W1D 5JL,Westminster,http://she-soho.com,10033622688,E09000033,West End,E05013808,51.51320405,-0.130902024,529795.2516000001,181019.80760000087,779
Village,81 Wardour Street,,W1D 6QD,Westminster,http://www.village-soho.co.uk/venue-details/,10033570802,E09000033,West End,E05013808,51.51241627,-0.133384273,529625.2555,180927.81010000035,779
The Yard,57 Rupert Street,,W1D 7PL,Westminster,http://yardbar.co.uk/about/,10033587131,E09000033,West End,E05013808,51.51199339,-0.13393479,529588.2566999998,180879.81130000018,779
Pimlico Library,,,,Westminster,,10033620911,E09000033,Pimlico South,E05013803,51.48766566,-0.135592046,529542.1995999999,178171.61150000058,779
Victoria Library,,,,Westminster,,10033616882,E09000033,Pimlico North,E05013802,51.49239532,-0.146262996,528788.0577999996,178678.74530000053,779
Express Library,,,,Westminster,,100023338401,E09000033,St James's,E05013806,51.49704271,-0.128567805,530003.1880999999,179226.7901000008,779
Mayfair Library,,,,Westminster,,100022802697,E09000033,West End,E05013808,51.50886039,-0.14954367,528514.0129000004,180503.91970000044,779
Charring Cross Library,,,,Westminster,,10033531833,E09000033,St James's,E05013806,51.50976289,-0.126518762,530109.1865999997,180644.92320000008,779
Paddington Library,,,,Westminster,,100023482172,E09000033,Bayswater,E05013793,51.5169107,-0.187042195,525889.7181000002,181334.01180000044,779
Marylebone Library,,,,Westminster,,100022725022,E09000033,Marylebone,E05013801,51.52012163,-0.149058338,528516.0016000001,181757.03680000082,779
Little Venice Sports Centre Library,,,,Westminster,,10033612553,E09000033,Little Venice,E05013799,51.52203057,-0.175608347,526668.7982000001,181923.06350000016,779
Church Street Library,,,,Westminster,,10033532267,E09000033,Church Street,E05013794,51.52252362,-0.168582114,527154.8507000003,181990.0661999993,779
Maida Vale Library,,,,Westminster,,100023511234,E09000033,Westbourne,E05013809,51.52416055,-0.188859128,525743.6946999999,182137.0889999997,779
St John's Wood Library,,,,Westminster,,10033532542,E09000033,Regent's Park,E05013805,51.53323428,-0.17084876,526967.8195000002,183177.17960000038,779
