name,address1,address2,address3,borough_name,website,os_addressbase_uprn,borough_code,ward_2022_name,ward_2022_code,latitude,longitude,easting,northing,fme_feature_type.total_count
Harrods Archive,68-72 Hammersmith Road, ,W14 8YW,Hammersmith and Fulham,,34142299,E09000013,Brook Green,E05013735,51.49454912,-0.213626532,524106.01240000036,178802.00280000083,106
Catholic Union of Great Britain,St Maximilian Kolbe House ,63 Jeddo Road ,W12 9EE,Hammersmith and Fulham,http://catholicunion.org.uk/,34000250,E09000013,Wendell Park,E05013750,51.50441554,-0.248918069,521630.0131999999,179840.00280000083,106
Hammersmith and Fulham Archives and Local History Cen,First Floor Hammersmith Library Shepherd's Bush Ro, ,W6 7AT,Hammersmith and Fulham,https://www.lbhf.gov.uk/libraries/local-studies-and-archives,34027231,E09000013,Brook Green,E05013735,51.49458469,-0.223666292,523409.0116999997,178789.0014999993,106
Latymer Upper School,King Street, ,W6 9LR,Hammersmith and Fulham,http://www.latymer-upper.org/,34004704,E09000013,Ravenscourt,E05013746,51.49273648,-0.237063395,522484.0127999997,178561.0025999993,106
National Federation of Women's Institutes,104 New Kings Road, ,SW6 4LY,Hammersmith and Fulham,https://www.thewi.org.uk/,34044214,E09000013,Fulham Town,E05013739,51.47223329,-0.203871557,524844.0120000001,176337.00249999948,106
Polish Library POSK,Polish Social and Cultural Centre ,238-246 King Street ,W6 0RF,Hammersmith and Fulham,http://www.posk.org/c5/en/library/about-library/,34006639,E09000013,Ravenscourt,E05013746,51.49351545,-0.237436695,522456.01269999985,178647.0022,106
Rogers Stirk Harbour + Partners,Thames Wharf ,Rainville Road ,W6 9HA,Hammersmith and Fulham,https://www.rsh-p.com/,34024755,E09000013,Fulham Reach,E05013738,51.48362317,-0.224294009,523395.01290000044,177569.0014999993,106
Society for Psychical Research,1 Vernon Mews ,West Kensington ,W14 0RL,Hammersmith and Fulham,https://www.spr.ac.uk/,34037603,E09000013,Avonmore,E05013734,51.49391403,-0.210309174,524338.0124000004,178737.0033999998,106
St Paul's Girls' School,Brook Green ,Hammersmith ,W6 7BS,Hammersmith and Fulham,https://spgs.org/,34026608,E09000013,Brook Green,E05013735,51.4951319,-0.218833263,523743.0122999996,178858.00320000015,106
The Nutrition Society,10 Cambridge Court,210 Shepherds Bush Road ,W6 7NJ,Hammersmith and Fulham,https://www.nutritionsociety.org/,34028103,E09000013,Brook Green,E05013735,51.49533778,-0.22470308,523335.0115,178871.00100000016,106
V&A Archive of Art and Design,Blythe House 23 Blythe Road, ,W14 0QX,Hammersmith and Fulham,https://www.vam.ac.uk/info/archive-of-art-and-design,34062985,E09000013,Brook Green,E05013735,51.49641388,-0.213841724,524086.0125000002,179009.00329999998,106
V&A Department of Theatre and Performance,23 Blythe Road, ,W14 0QX,Hammersmith and Fulham,https://www.vam.ac.uk/collections/theatre-performance,34062985,E09000013,Brook Green,E05013735,51.49641388,-0.213841724,524086.0125000002,179009.00329999998,106
William Morris Society,Kelmscott House ,26 Upper Mall  Hammersmith,W6 9TA,Hammersmith and Fulham,https://williammorrissociety.org/,34008094,E09000013,Ravenscourt,E05013746,51.49058179,-0.235504366,522598.0142000001,178324.00239999965,106
Faroe Rd,23 - 29 Faroe Rd,,,Hammersmith and Fulham,www.acava.org,34034840,E09000013,Brook Green,E05013735,51.49859209,-0.21515405,523989.0126,179249.0030000005,106
Hetley Rd,62 Hetley Rd,,,Hammersmith and Fulham,www.acava.org,34100876,E09000013,Coningham,E05013737,51.50456464,-0.2336672,522688.0119000003,179882.00229999982,106
Northwest & NW10 Studios,Cadogen House,60 Hythe Road,,Hammersmith and Fulham,https://nwstudios.wordpress.com,34141600,E09000013,College Park & Old Oak,E05013736,51.52659825,-0.236173141,522455.0120000001,182328.0014999993,106
Regents House,17 Hythe Road,,,Hammersmith and Fulham,https://nwstudios.wordpress.com,34004522,E09000013,College Park & Old Oak,E05013736,51.52826456,-0.243547884,521939.00960000046,182500.99990000017,106
Hythe Rd,First Floor,17 - 19 Hythe Rd,,Hammersmith and Fulham,www.acava.org,34156437,E09000013,College Park & Old Oak,E05013736,51.52846055,-0.243425,521947.0094999997,182522.9989,106
Apex House,23-25 Hythe Road,,,Hammersmith and Fulham,https://nwstudios.wordpress.com,34131643,E09000013,College Park & Old Oak,E05013736,51.52853021,-0.244474766,521874.0098000001,182528.99929999933,106
Kindred Studios,13 Market Lane,Sheperds Bush,,Hammersmith and Fulham,https://www.kindredstudios.co.uk/studios,34164567,E09000013,Shepherd's Bush Green,E05013748,51.503473,-0.22637003,523197.3699000003,179772.85009999946,106
Irish Cultural Centre ,5 Black's Rd,Hammersmith,W6 9DT,Hammersmith and Fulham,https://irishculturalcentre.co.uk/,34156699,E09000013,Hammersmith Broadway,E05013741,51.49231323,-0.225584711,523281.97190000024,178533.1810999997,106
Riverside Studios ,19 Crisp Rd, Hammersmith,W6 9RL,Hammersmith and Fulham,https://www.riversidestudios.co.uk/,34157767,E09000013,Hammersmith Broadway,E05013741,51.48890897,-0.228255397,523105.7457999997,178150.1305999998,106
Riverside Studios,,65 Aspenlea Rd,W6 8LH,Hammersmith and Fulham,,34158197,E09000013,Fulham Reach,E05013738,51.48589,-0.2178631,523835.3848000001,177831.9243999999,106
Vue Cinema Fulham Broadway,Fulham Broadway Retail Centre,Fulham Rd,SW6 1BW,Hammersmith and Fulham,,34131058,E09000013,Walham Green,E05013749,51.480416,-0.19451553,525471.3454,177262.9112999998,106
"Vue Westfield 
",Westfield London Shopping Centre ,Ariel Way ,W12 7GF,Hammersmith and Fulham,,34141269,E09000013,Shepherd's Bush Green,E05013748,51.507597,-0.22142571,523529.3605000004,180239.77370000072,106
Electric Cinema White City,,,,Hammersmith and Fulham,,,E09000013,White City,E05013752,51.51069,-0.22546,523241.0571999997,180576.92720000073,106
Studio 106,106 Dawes Road,,,Hammersmith and Fulham,http://www.studio106artgallery.org/#,34055693,E09000013,Walham Green,E05013749,51.4799865,-0.20243497,524922.6256999997,177201.6216000002,106
Hidde van Seggelen Gallery,2 Michael Road,,,Hammersmith and Fulham,http://www.hiddevanseggelen.com/#,34144768,E09000013,Parsons Green & Sandford,E05013745,51.47707611,-0.186894072,526009.7357000001,176904.58239999972,106
Plus One Gallery,The Piper Building,Peterborough Road,,Hammersmith and Fulham,http://www.plusonegallery.com/#,See notes,E09000013,Palace & Hurlingham,E05013744,51.4659,-0.19315,525605.9681000002,175651.04209999926,106
The Carlyle Group,Uncommon,126 New King's Road,,Hammersmith and Fulham,https://uncommon.co.uk/,34107031,E09000013,Palace & Hurlingham,E05013744,51.47127607,-0.204476671,524804.5971999997,176229.5281000007,106
Ugli Campus,Ugli Campus,Ugli Campus,56 Wood Lane,Hammersmith and Fulham,http://ugli.lovelyinside.com,34152043,E09000013,Shepherd's Bush Green,E05013748,51.51060535,-0.222229413,523465.4567999998,180572.9539999999,106
Huckletree,Huckletree,White City Place,191 Wood Lane,Hammersmith and Fulham,http://www.huckletree.com/,34160930,E09000013,College Park & Old Oak,E05013736,51.51286842,-0.226283471,523178.0418999996,180817.7873999998,106
Soho Works White City,2 Television Centre,101 Wood Lane,London,Hammersmith and Fulham,https://www.sohohouse.com/soho-works/white-city,10092040398,E09000013,White City,E05013752,51.510681,-0.22614773,523193.35979999974,180574.76960000023,106
The So & So Arts Club,236a North End Road,West Kensington,London,Hammersmith and Fulham,https://www.thesoandsoartsclub.com/,34047731 ,E09000013,West Kensington,E05013751,51.485544,-0.20286847,524877.3678000001,177818.89220000058,106
Eventim Apollo Hammersmith,45 Queen Caroline Street,,,Hammersmith and Fulham,https://www.eventimapollo.com/,34030384,E09000013,Hammersmith Broadway,E05013741,51.49069334,-0.224422616,523367.0137,178355.00180000067,106
Barons Court Theatre,28a Comeragh Road,,,Hammersmith and Fulham,http://www.offwestend.com/index.php/theatres/view/42,34128758,E09000013,West Kensington,E05013751,51.48943219,-0.209490815,524407.0153000001,178240.0033999998,106
Bhavan Centre,4a Castletown Road,,,Hammersmith and Fulham,http://www.bhavan.net,34140084,E09000013,West Kensington,E05013751,51.4897635,-0.207043433,524576.0148999998,178281.00329999998,106
West London School of Dance,25 Bulwer Street,,,Hammersmith and Fulham,https://www.westlondonschoolofdance.co.uk,34039599,E09000013,Shepherd's Bush Green,E05013748,51.50548497,-0.223746535,523374.01049999986,180001.00039999932,106
West London College,7 Gliddon Road,,,Hammersmith and Fulham,https://www.wlc.ac.uk/contact-us/hammersmith-fulham-college,34141735,E09000013,Avonmore,E05013734,51.49186609,-0.214005169,524087.01269999985,178503.0033999998,106
Dance Attic,368 North End Road,,,Hammersmith and Fulham,https://www.danceattic.com,34069847,E09000013,Walham Green,E05013749,51.48115895,-0.199502938,525123.0114000002,177337.0025999993,106
West London School of Dance,Village Hall Dance Studio,58 Bulwer Street,,Hammersmith and Fulham,https://www.westlondonschoolofdance.co.uk/studio-hire,34039610,E09000013,Shepherd's Bush Green,E05013748,51.50574272,-0.224139981,523346.0103000002,180029.00019999966,106
Karen Hardy Dance studios,10-12 The Boulevard,,,Hammersmith and Fulham,http://www.karenhardystudios.com,34145839,E09000013,Sands End,E05013747,51.4734376,-0.181648775,526384.0119000003,176509.00249999948,106
Bhavan Centre,4a Castletown Road,,,Hammersmith and Fulham,http://www.bhavan.net,34140084,E09000013,West Kensington,E05013751,51.4897635,-0.207043433,524576.0148999998,178281.00329999998,106
West London School of Dance,25 Bulwer Street,,,Hammersmith and Fulham,https://www.westlondonschoolofdance.co.uk,34039599,E09000013,Shepherd's Bush Green,E05013748,51.50548497,-0.223746535,523374.01049999986,180001.00039999932,106
Huckletree West Mediaworks,"191 Wood Ln, London W12 7FP",,,Hammersmith and Fulham,https://www.huckletree.com/hubs/west,34160930,E09000013,College Park & Old Oak,E05013736,51.513369,-0.22788804,523065.35780000035,180870.75659999996,106
Ted's Place,305a North End Road,Fulham,W14 9NS,Hammersmith and Fulham,http://www.tedsplaceuk.co.uk,34117591,E09000013,West Kensington,E05013751,51.48589015,-0.202566804,524897.3676000005,177857.89910000004,106
Hurlingham and Chelsea School and Community Library ,,,,Hammersmith and Fulham,,34063756,E09000013,Palace & Hurlingham,E05013744,51.46730717,-0.194927408,525478.6583000002,175804.4774999991,106
Fulham,,,,Hammersmith and Fulham,,34044300,E09000013,Walham Green,E05013749,51.47675544,-0.201107392,525023.6284999996,176844.58320000023,106
Avonmore Library and Neighbourhood Centre,,,,Hammersmith and Fulham,,34058302,E09000013,Avonmore,E05013734,51.49206749,-0.205547084,524673.6103999997,178539.7561000008,106
Hammersmith,,,,Hammersmith and Fulham,,34027231,E09000013,Brook Green,E05013735,51.4940733,-0.222094745,523519.4818000002,178734.7818,106
Askew Road,,,,Hammersmith and Fulham,,34011906,E09000013,Coningham,E05013737,51.50317005,-0.24146864,522150.3295999998,179713.89079999924,106
Shepherds Bush Library ,6 Wood Lane,,,Hammersmith and Fulham,,,E09000013,Shepherd's Bush Green,E05013748,51.5059,-0.22427,523336.56269999966,180046.27119999938,106
Imperial College London,The Invention Rooms,68 Wood Lane,White City,Hammersmith and Fulham,https://www.imperial.ac.uk/white-city-campus/community/the-invention-rooms/,34126299,E09000013,College Park & Old Oak,E05013736,51.51352783,-0.225162991,523254.0091000004,180893.00019999966,106
Light Factory Workshops,Light Factory Workshops,6 Scrubs Lane,,Hammersmith and Fulham,http://www.lightfactoryworkshops.co.uk,34119028,E09000013,College Park & Old Oak,E05013736,51.53189092,-0.238304181,522293.0097000003,182912.99939999916,106
Masbro Centre,87 Masbro Rd,Hammersmith,,Hammersmith and Fulham,https://www.upg.org.uk/,34034846,E09000013,Brook Green,E05013735,51.500206,-0.21609445,523919.36479999963,179426.88209999911,106
Kindred Studios,13 Market Lane,Sheperds Bush,,Hammersmith and Fulham,https://www.kindredstudios.co.uk/studios,34164567,E09000013,Shepherd's Bush Green,E05013748,51.503473,-0.22637003,523197.3699000003,179772.85009999946,106
The Art Bronze Foundry,1 & 3 Michael Road Kings Road,,,Hammersmith and Fulham,http://www.artbronze.co.uk/index.html,34066852,E09000013,Parsons Green & Sandford,E05013745,51.47689829,-0.187847066,525944.0482000001,176883.17039999925,106
The Crucible Foundry,Units15a&b,Parsons Green Depot,33-39 Parsons Gree,Hammersmith and Fulham,www.cruciblefoundry.com,34106929,E09000013,Walham Green,E05013749,51.476617,-0.19895683,525173.3443,176832.85859999992,106
Kelmscott Manor,26 Upper Mall,Hammersmith,NA,Hammersmith and Fulham,http://www.culture24.org.uk/se000423,34008094,E09000013,Hammersmith Broadway,E05013741,51.49007025,-0.233934067,522708.3980999999,178269.74560000002,106
Fulham Palace,Fulham Palace,Bishop's Ave,Fulham,Hammersmith and Fulham,www.fulhampalace.org/,34022825,E09000013,Palace & Hurlingham,E05013744,51.47003084,-0.213626422,524172.5334999999,176075.5248000007,106
Emery Walker's House,7 Hammersmith Terrace,London,W6 9TS ?,Hammersmith and Fulham,https://www.emerywalker.org.uk/,34007395,E09000013,Ravenscourt,E05013746,51.48983,-0.24244193,522118.4126000004,178228.82090000063,106
Bhavan Art Gallery,4a Castletown Road,,,Hammersmith and Fulham,http://www.bhavan.net/art-gallery#,34140084,E09000013,West Kensington,E05013751,51.489763,-0.20706715,524574.3698000005,178280.90740000084,106
Exhibition ,Ariel Way,London,Ariel Way,Hammersmith and Fulham,https://exhibitionlondon.co.uk/,,E09000013,Shepherd's Bush Green,E05013748,51.50976106,-0.222872173,523423.1366999997,180477.9838999994,106
Eventim Apollo,"45 Queen Caroline Street, London, W6 9QH",London,45 Queen Caroline ,Hammersmith and Fulham,Eventim Apollo,34030384,E09000013,Hammersmith Broadway,E05013741,51.49084,-0.224504,523360.96829999983,178371.17369999923,106
The Hammersmith Club,11 Rutland Grove,Hammersmith And Fulham,11 Rutland Grove,Hammersmith and Fulham,,34149712,E09000013,Hammersmith Broadway,E05013741,51.48924321,-0.228592553,523081.4395000003,178186.73249999993,106
O2 Shepherd's Bush Empire,211 Shepherd's Bush Grn,London,211 Shepherd's Bus,Hammersmith and Fulham,www.academymusicgroup.com/o2shepherdsbushempire,34030760,E09000013,Addison,E05013733,51.50385,-0.219813,523651.4145999998,179825.81980000064,106
Nell's Jazz & Blues,3 North End Crescent,Hammersmith And Fulham,3 North End Cresce,Hammersmith and Fulham,https://nells.co.uk/,34151679,E09000013,Avonmore,E05013734,51.49172771,-0.205675684,524665.6097999997,178501.75310000032,106
Under The Bridge,"Stamford Bridge, Fulham Road, London, SW6 1HS",Fulham,Stanford Bridge Fu,Hammersmith and Fulham,www.underthebridge.co.uk,0,E09000013,Walham Green,E05013749,51.481432,-0.191557,525673.9844000004,177380.96240000054,106
Vintage Nightclub,"563 Fulham Road, Fulham, London, SW6 1ES",,,Hammersmith and Fulham,,34142128,E09000013,Walham Green,E05013749,51.479917,-0.195259,525421.0887000002,177206.1486000009,106
Sugar Hut Club Fulham,"374 North End Road, Fulham, London SW6 1LY",,,Hammersmith and Fulham,,34117095,E09000013,Walham Green,E05013749,51.481366,-0.199269,525138.6890000002,177360.4265999999,106
O2 Shepherd's Bush Empire,211 Shepherd's Bush Grn,London,211 Shepherd's Bus,Hammersmith and Fulham,www.academymusicgroup.com/o2shepherdsbushempire,34030760,E09000013,Addison,E05013733,51.50385,-0.219813,523651.4145999998,179825.81980000064,106
Nell's Jazz & Blues,3 North End Crescent,Hammersmith And Fulham,3 North End Cresce,Hammersmith and Fulham,https://nells.co.uk/,34151679,E09000013,Avonmore,E05013734,51.49172771,-0.205675684,524665.6097999997,178501.75310000032,106
Under The Bridge,"Stamford Bridge, Fulham Road, London, SW6 1HS",Fulham,Stanford Bridge Fu,Hammersmith and Fulham,www.underthebridge.co.uk,,E09000013,Walham Green,E05013749,51.481432,-0.191557,525673.9844000004,177380.96240000054,106
Vintage Nightclub,"563 Fulham Road, Fulham, London, SW6 1ES",,,Hammersmith and Fulham,,34142128,E09000013,Walham Green,E05013749,51.479917,-0.195259,525421.0887000002,177206.1486000009,106
Westpoint Studios ,Unit 4A - 4B Westpoint,39-40 Warple Way,,Hammersmith and Fulham,https://www.factorystudios.co.uk/,12149838,E09000013,Wendell Park,E05013750,51.50380726,-0.253813389,521291.89350000024,179764.2469999995,106
Rds Studios Ltd,12 Hetley Road,Hammersmith And Fulham,,Hammersmith and Fulham,,34019456,E09000013,Coningham,E05013737,51.50516536,-0.232413685,522773.3901000004,179950.9026999995,106
Matrix Recording Studios,91 Peterborough Rd,,,Hammersmith and Fulham,https://www.matrix-studios.co.uk/, 34068324,E09000013,Parsons Green & Sandford,E05013745,51.47049,-0.19757111,525286.3322999999,176153.89220000058,106
Rms Rehearsal Studios,Arch 57 Putney Station Approach,,,Hammersmith and Fulham,www.rmsstudios.co.uk,No UPRN,E09000013,Palace & Hurlingham,E05013744,51.46909,-0.20871,524516.5414000005,175979.23809999973,106
Bush Studios,151 Railway Arches,Macfarlane Road,Hammersmith And Fu,Hammersmith and Fulham,www.bushstudios.co.uk,34156724,E09000013,Shepherd's Bush Green,E05013748,51.50693299,-0.224404426,523324.4455000004,180160.91569999978,106
Dance Attic,368 North End Road,,,Hammersmith and Fulham,https://www.danceattic.com,34069847,E09000013,Walham Green,E05013749,51.481158,-0.19952684,525121.3543999996,177336.85620000027,106
Beat about the Bush,Unit 23  Enterprise Way,,,Hammersmith and Fulham,https://www.beataboutthebush.com,34021541,E09000013,College Park & Old Oak,E05013736,51.5284595,-0.240263545,522166.2973999996,182528.14760000072,106
Farley Prop Hire,1-21  Brunel Road,,,Hammersmith and Fulham,https://www.farley.co.uk,12139149,E09000013,College Park & Old Oak,E05013736,51.51900491,-0.250315243,521494.2452999996,181460.06379999965,106
Foxtrot Costume and Props Ltd,3B  Brassie Avenue,,,Hammersmith and Fulham,https://www.foxtrotcostumeandprops.co.uk/,12150243,E09000013,College Park & Old Oak,E05013736,51.51502319,-0.248666068,521619.26269999985,181020.02119999938,106
Maggie Cooke Limited,77 Jeddo Road,,,Hammersmith and Fulham,http://www.maggiecooke.com,34000432,E09000013,Wendell Park,E05013750,51.50349526,-0.248776693,521642.2740000002,179737.8998000007,106
Accessories of Old,Railway Arch 10,Munster Road,,Hammersmith and Fulham,https://www.accessoriesofold.com,34042851,E09000013,Fulham Town,E05013739,51.4726,-0.20383793,524845.3475000001,176377.8384000007,106
Francesca Zagari,32C  Aynhoe Road,,,Hammersmith and Fulham,http://www.coroflot.com/francescazagari,34026245,E09000013,Brook Green,E05013735,51.49578456,-0.215746179,523955.5278000003,178935.79820000008,106
Set Surfaces ,"Unit 37, Townmead Business Centre",William Morris Way,,Hammersmith and Fulham,https://setsurfaces.co.uk,34116523,E09000013,Sands End,E05013747,51.468443,-0.18552883,526128.3080000002,175946.9079,106
Bysshe Partnership,Durham Wharf,Hammersmith Terrace,,Hammersmith and Fulham,http://www.bysshe.co/,34133903,E09000013,Ravenscourt,E05013746,51.48873617,-0.242110572,522144.3378999997,178107.73640000075,106
Kindred Studios,13 Market Lane,Sheperds Bush,,Hammersmith and Fulham,https://www.kindredstudios.co.uk/,34164567,E09000013,Shepherd's Bush Green,E05013748,51.503473,-0.22637003,523197.3699000003,179772.85009999946,106
Holy Innocents Church,Paddenswick Road,,,Hammersmith and Fulham,http://www.hisj.co.uk/venue-hire/,34118167,E09000013,Ravenscourt,E05013746,51.49856204,-0.236953776,522476.0127999997,179209.00210000016,106
Jet Studios ,18 Lettice Street,,,Hammersmith and Fulham,http://jetstudios.co.uk/,34041920,E09000013,Fulham Town,E05013739,51.4746528,-0.203315759,524876.0120999999,176607.0022,106
Bush Theatre,7 Uxbridge Road,,,Hammersmith and Fulham,https://www.bushtheatre.co.uk/,34032421,E09000013,Shepherd's Bush Green,E05013748,51.50502516,-0.225450345,523257.0098000001,179947.00060000084,106
Holy Trinity W6,Brook Green,,,Hammersmith and Fulham,www.trinityfocus.org,34134012,E09000013,Brook Green,E05013735,51.49529194,-0.218121104,523792.0122999996,178877.00290000066,106
Lyric Hammersmith,Lyric Square, King St,,Hammersmith and Fulham,https://lyric.co.uk/our-home/hires-and-parties/our-spaces/,34027053,E09000013,Hammersmith Broadway,E05013741,51.493247,-0.22630594,523229.3883999996,178635.80509999953,106
LAMDA,155 Talgarth Road,,,Hammersmith and Fulham,https://www.lamda.ac.uk/life-lamda/hire-space,34153945,E09000013,Hammersmith Broadway,E05013741,51.488848,-0.2279603,523126.3964999998,178143.84640000015,106
Rehearsal Space 'The Nest',Polka Theatre,240 The Broadway,,Hammersmith and Fulham,https://polkatheatre.com/hire-us/,34160370,E09000013,Hammersmith Broadway,E05013741,51.490492,-0.21477389,524037.37760000024,178348.90049999952,106
Lyric Hammersmith,Lyric Square, King St,,Hammersmith and Fulham,https://lyric.co.uk/,34027053,E09000013,Grove,E05013740,51.49375939,-0.227877123,523118.9422000004,178690.1428999994,106
Eventim Apollo,45 Queen Caroline Street, Hammersmith,,Hammersmith and Fulham,NA,34030384,E09000013,Hammersmith Broadway,E05013741,51.49099869,-0.22701033,523186.55090000015,178384.60400000028,106
Shepherds Bush Empire,211 Shepherd's Bush Green,,,Hammersmith and Fulham,https://academymusicgroup.com/o2shepherdsbushempire/,34030760,E09000013,Shepherd's Bush Green,E05013748,51.50393746,-0.226070492,523216.9056000002,179825.00280000083,106
Bush Theatre,7 Uxbridge Rd, Shepherd's Bush,,Hammersmith and Fulham,https://www.bushtheatre.co.uk/,34032421,E09000013,Shepherd's Bush Green,E05013748,51.5055343,-0.227045431,523144.9406000003,180000.9355999995,106
Barons Court Theatre,28a Comeragh Rd,,,Hammersmith and Fulham,http://www.offwestend.com/index.php/theatres/view/42,34128758,E09000013,West Kensington,E05013751,51.48963907,-0.212337518,524208.82919999957,178258.17989999987,106
The Bhavan Centre,4A Castletown Rd, Hammersmith,,Hammersmith and Fulham,http://www.bhavan.net/,34140084,E09000013,West Kensington,E05013751,51.48990812,-0.208193931,524495.7516999999,178295.13010000065,106
Riverside Studios,101 Queen Caroline Street, Hammersmith,,Hammersmith and Fulham,http://www.riversidestudios.co.uk/,34153945,E09000013,West Kensington,E05013751,51.48990812,-0.208193931,524495.7516999999,178295.13010000065,106
Sainsbury Theatre,LAMDA,155 Talgarth Rd,,Hammersmith and Fulham,https://www.lamda.ac.uk/hire-our-spaces,34160370,E09000013,Avonmore,E05013734,51.49106288,-0.215523255,523983.80790000036,178411.1152999997,106
Teatr Polski,Polish Centre, 238-46 King Street,,Hammersmith and Fulham,http://www.posk.org/c5/en/home/,34160956,E09000013,Ravenscourt,E05013746,51.49403514,-0.239015056,522345.0585000003,178702.15740000084,106
The Playground Theatre,8 Latimer Industrial Estate, Latimer Rd,,Hammersmith and Fulham,http://theplaygroundtheatre.london/,217052352,E09000013,College Park & Old Oak,E05013736,51.51831412,-0.226001748,523182.9018000001,181423.83640000038,106
