name,address1,address2,address3,borough_name,website,os_addressbase_uprn,borough_code,ward_2022_name,ward_2022_code,latitude,longitude,easting,northing,fme_feature_type.total_count
Franciscan Archives English Province,Franciscan Friary ,56 St Antony's Road  Forest Gate,E7 9QB,Newham,http://www.friar.org/our-heritage,46068665,E09000025,Green Street West,E05013914,51.53951262,0.024906099,540525.0127999997,184233.00159999914,111
"Friars Minor, English Province Archives",The Friary ,58 St Antony's Road  Forest Gate,E7 9QB,Newham,http://www.friar.org/our-heritage,46068665,E09000025,Green Street West,E05013914,51.53951262,0.024906099,540525.0127999997,184233.00159999914,111
Mind for Better Mental Health,15-19 Broadway ,Stratford ,E15 4BQ,Newham,https://www.mind.org.uk/,10008984107,E09000025,Stratford,E05013924,51.54023648,0.001086514,538871.0114000002,184268.00119999982,111
Movement for Christian Democracy,Mayflower Family Centre ,Vincent Street ,E16 1LZ,Newham,https://www.britannica.com/topic/Christian-democracy,10008988833,E09000025,Canning Town South,E05013907,51.51524569,0.013149883,539784.0110999998,181512.00329999998,111
Newham Archive and Local Studies Library,Stratford Library ,3 The Grove ,E15 1EL,Newham,https://www.newham.gov.uk/Pages/Services/Local-history-and-archives.aspx,46101428,E09000025,Stratford,E05013924,51.54277052,0.004355963,539090.0105999997,184556.00060000084,111
"Theatre Royal, Stratford East",Gerry Raffles Square, ,E15 1BN,Newham,http://www.stratfordeast.com/,10009003230,E09000025,Stratford,E05013924,51.54255806,0.001000881,538858.0111999996,184526.00170000084,111
University of East London: Library and Learning Centr,Library and Learning Service: Archives University ,4-6 University Way ,E16 2RD,Newham,https://www.uel.ac.uk/discover/library,10008997988,E09000025,Royal Albert,E05013922,51.50748597,0.064786409,543391.0122999996,180749.00200000033,111
R.A.W Studios,"Norton Quays,",Royal Albert Wharf,,Newham,www.bowarts.org    www.artiststudiofinder.org   www.londonsartistquarter.org,10012839984,E09000025,Royal Albert,E05013922,51.50636087,0.074924925,544098.1059999997,180643.78969999962,111
Flying Angel,287 Victoria Dock Rd,,,Newham,www.acava.org,10023998099,E09000025,Custom House,E05013908,51.51019552,0.028044592,540833.0097000003,180979.00390000083,111
Red Door Studios,Rear of 120 High Street South,120 High Street South,,Newham,https://www.throughthereddoor.org/get-in-touch/,10008987682,E09000025,East Ham South,E05013910,51.52640867,0.055983302,542721.0126,182836.00159999914,111
Napier Works,57-63 Napier Rd,,,Newham,www.artcoreint.net,10008994852,E09000025,Wall End,E05013926,51.53075547,0.061946286,543121.0121999998,183331.00269999914,111
Warton House,150 Stratford High Street,Stratford,,Newham,www.acme.org.uk,10093475501,E09000025,Stratford,E05013924,51.53466962,-0.006814132,538340.0083999997,183633.99650000036,111
Rowse Close,1 and 3a Rowse Close,Stratford,,Newham,www.acme.org.uk,46250199,E09000025,Stratford,E05013924,51.5382833,-0.007261893,538298.0076000001,184034.99479999952,111
Stratford Studios,375 High Street,Stratford,,Newham,www.bowarts.org    www.artiststudiofinder.org   www.londonsartistquarter.org,10012838724,E09000025,Stratford,E05013924,51.53885852,-0.000372685,538774.0118000004,184112.00180000067,111
Old Manor Park Library,835 Romford Road,Newham,,Newham,www.bowarts.org    www.artiststudiofinder.org   www.londonsartistquarter.org,10009001282,E09000025,Manor Park,E05013916,51.55312932,0.053754443,542483.0120999999,185803.0022,111
Silver Building (Projekt),60 Dock road,London,,Newham,http://thisisprojekt.com/silverbuilding,10008985422,E09000025,Royal Victoria,E05013923,51.504762,0.017112899,540091.1370999999,180353.8239999991,111
Rosetta Arts,1 Hamilton Rd,,,Newham,https://rosettaarts.org/,46034253,E09000025,Canning Town North,E05013906,51.524916,0.007076147,539333.0970999999,182575.73460000008,111
SPACE,Aspire Point,Jupp Road West,,Newham,https://spacestudios.org.uk/buildings/aspire-point-e15 ,10093476523,E09000025,Stratford,E05013924,51.536776,-0.004428204,538499.0908000004,183872.7402999997,111
Stratford Studios,Duncan House,Jupp Road,Stratford,Newham,https://www.stourstudios.co.uk/duncan-house,10094369425,E09000025,Stratford,E05013924,51.538021,-0.002513575,538628.0904000001,184014.81079999916,111
Stratford Circus Arts Centre ,Theatre Square,,E15 1BX,Newham,https://stratford-circus.com/,10008996899,E09000025,Stratford,E05013924,51.5427166,0.001743614,538909.0311000003,184545.04150000028,111
Showcase Newham,,Jenkins Ln,IG11 0AD,Newham,,10008989589,E09000025,Beckton,E05013904,51.526341,0.08118208,544469.1211999999,182877.88289999962,111
Stratford East Picturehouse,,Gerry Raffell Square,E15 1BX,Newham,,10008985556,E09000025,Stratford,E05013924,51.543051,0.00148522,538890.0961999996,184581.73670000024,111
Vue Westfield Stratford,2 Stratford Place,Westfield Stratford City ,E15 1AA,Newham,,10090326480,E09000025,Stratford Olympic Park,E05013925,51.54366,-0.00649,538335.2414999995,184634.34809999913,111
Silver Building (Projekt),60 Dock road,London,,Newham,http://thisisprojekt.com/silverbuilding,10008985422,E09000025,Royal Victoria,E05013923,51.504762,0.017112899,540091.1370999999,180353.8239999991,111
Stratford Studios,"Duncan House, Jupp Road, Stratford",,,Newham,https://www.stourstudios.co.uk/duncan-house,10094369425,E09000025,Stratford,E05013924,51.538021,-0.002513575,538628.0904000001,184014.81079999916,111
Urban Space Management (Tbw) Ltd,Urban Space Management (Tbw) Ltd,Trinity Buoy Wharf,64 Orchard Place,Newham,www.trinitybuoywharf.com,6130647,E09000025,Royal Victoria,E05013923,51.50792823,0.010337417,539611.2478,180692.96020000055,111
The Hive,Swan Wharf,60 Dace Road,,Newham,http://swanwharfproject.co.uk/contact/,6151658,E09000025,Stratford Olympic Park,E05013925,51.53722457,-0.020022508,537416.2865000004,183893.25280000083,111
Arbeit / Arebyte,Albeit London City Island,18 Botanic Square,Leamouth Peninsula,Newham,www.arbeit.org.uk / www.arebyte.com,6704073,E09000025,Canning Town South,E05013907,51.51070161,0.007519211,539407.2139999997,180995.98039999977,111
Stratford Workshop /Lb Newham,Stratford Workshop,Burford Road,,Newham,https://www.newham.gov.uk/Pages/ServiceChild/Stratford-Workshops.aspx,10009017863,E09000025,Stratford,E05013924,51.537326,-0.000294467,538784.0944999997,183941.73189999908,111
Expressway,1 Dock Road,,,Newham,https://expressway.london,10009000443,E09000025,Royal Victoria,E05013923,51.505982,0.015768968,539994.1294,180486.91569999978,111
Stratford Workshops,Burford Rd,London,,Newham,https://www.newham.gov.uk/coronavirus-covid-19/support-businesses/7,10009017863,E09000025,Stratford,E05013924,51.537326,-0.000294467,538784.0944999997,183941.73189999908,111
Silver Building,The Silver Building,60 Dock Road,,Newham,http://thesilverbuilding.com/,10008985422 ,E09000025,Royal Victoria,E05013923,51.504762,0.017112899,540091.1370999999,180353.8239999991,111
Stratford Studios,Duncan House,Jupp Road,Stratford,Newham,https://www.stourstudios.co.uk/duncan-house,10094369425,E09000025,Stratford,E05013924,51.538021,-0.002513575,538628.0904000001,184014.81079999916,111
Stratford Circus,Theatre Square,,,Newham,https://stratford-circus.com,10008996899,E09000025,Stratford,E05013924,51.5427166,0.001743614,538909.0311000003,184545.04150000028,111
"Theatre Royal, Stratford East",Gerry Raffles Square,,,Newham,http://www.stratfordeast.com/whats-on/,10009003230,E09000025,Stratford,E05013924,51.54255806,0.001000881,538858.0111999996,184526.00170000084,111
Silver Building (Projekt),60 Dock road,London,,Newham,http://thisisprojekt.com/silverbuilding,10008985422,E09000025,Royal Victoria,E05013923,51.504762,0.017112899,540091.1370999999,180353.8239999991,111
East London Dance,The Talent House,3 Sugar House Lane,,Newham,https://www.eastlondondance.org/,See notes,E09000025,Stratford,E05013924,51.53189,-0.00886,538206.5340999998,183321.0360000003,111
Barking Road Community Centre: J?î?á?ñs Dance Factory,633 Barking Rd,,,Newham,https://www.newham.gov.uk/Pages/ServiceChild/Barking-Road-community-centre.aspx,10008983357,E09000025,Plaistow North,E05013918,51.52830003,0.032611893,541094.0122999996,183001.0022,111
Harris Academy Chobham,40 Cheering Ln,,,Newham,http://www.chobhamacademy.org.uk,10090758476,E09000025,Stratford Olympic Park,E05013925,51.54925262,-0.007030376,538280.8262999998,185255.2332000006,111
Maryland Studioz,86 Leytonstone Rd,,,Newham,http://www.marylandstudioz.com,10008997508,E09000025,Maryland,E05013917,51.54996453,0.005437024,539143.0411,185358.04289999977,111
3 Mills Studios,3 Mill Lane,,,Newham,http://www.3mills.com,10009018097,E09000025,Stratford,E05013924,51.52684581,-0.006276453,538401.0093,182764.99819999933,111
Stratford Circus,Theatre Square,,,Newham,https://stratford-circus.com,10008996899,E09000025,Stratford,E05013924,51.5427166,0.001743614,538909.0311000003,184545.04150000028,111
"Theatre Royal, Stratford East",Gerry Raffles Square,,,Newham,http://www.stratfordeast.com/whats-on/,10009003230,E09000025,Stratford,E05013924,51.54255806,0.001000881,538858.0111999996,184526.00170000084,111
Silver Building (Projekt),60 Dock road,London,,Newham,http://thisisprojekt.com/silverbuilding,10008985422,E09000025,Royal Victoria,E05013923,51.504762,0.017112899,540091.1370999999,180353.8239999991,111
East London Dance,The Talent House,3 Sugar House Lane,,Newham,https://www.eastlondondance.org/our-services/#studio_hire,See notes,E09000025,Stratford,E05013924,51.53189,-0.00886,538206.5340999998,183321.0360000003,111
Crossbow Fashions Ltd,Unit 4 Maryland Industrial Estate,26 Maryland Road,,Newham,http://www.crossbowfashions.co.uk/,46098281,E09000025,Maryland,E05013917,51.5484968,0.0033929,539005.7910000002,185190.9419999998,111
RBJ Simpson,9 Canning Town Business Park,101 Stephenson Street,,Newham,http://www.simpson-london.com/,10090851202,E09000025,Canning Town North,E05013906,51.52256992,0.002247006,539005.2477000002,182305.6638999991,111
Studio MasaChuka,9 Essex House,375 High Street ,,Newham,http://www.masachuka.com/,46252102,E09000025,Stratford,E05013924,51.53885852,-0.000372685,538774.0118000004,184112.00180000067,111
Elegant Design UK Ltd,Unit 5 Kierbeck Business Complex,North Woolwich Road,,Newham,http://www.elegantdesignuk.com/,10012838785,E09000025,Royal Victoria,E05013923,51.50184706,0.026664852,540763.0122999996,180048.00269999914,111
Silver Building,"60 Dock Rd, London E16 1YZ",,,Newham,http://thesilverbuilding.com,10008985422,E09000025,Royal Victoria,E05013923,51.504762,0.017112899,540091.1370999999,180353.8239999991,111
Stratford Workshops,"Burford Rd, London E15 2SP",,,Newham,https://www.newham.gov.uk/coronavirus-covid-19/support-businesses/7,10009017863,E09000025,Stratford,E05013924,51.537326,-0.000294467,538784.0944999997,183941.73189999908,111
ED Studio,"Unit B, 26 Maryland Road,
Maryland Industrial Esta",,,Newham,https://edstudio.biz/,No UPRN,E09000025,Maryland,E05013917,51.54822,0.00344,539009.8996000001,185160.25090000033,111
Expressway,1 Dock Road,,,Newham,https://expressway.london,10009000443,E09000025,Royal Victoria,E05013923,51.505982,0.015768968,539994.1294,180486.91569999978,111
Allfeminine Limited,D2 67-69 Rani Bazard,Queens Market,,Newham,,10009002926,E09000025,Plaistow North,E05013918,51.53369172,0.0355694,541282.4754999997,183606.26620000042,111
Sharad's,4 St. Stephens Parade,Green Street,,Newham,,10012838696,E09000025,Green Street East,E05013913,51.53744669,0.0358235,541288.4813999999,184024.30939999968,111
Stratford Workshops,"Burford Rd, London E15 2SP",,,Newham,,10009017863,E09000025,Stratford,E05013924,51.537326,-0.000294467,538784.0944999997,183941.73189999908,111
North Woolwich Library,,,,Newham,,10008995497,E09000025,Royal Albert,E05013922,51.50055166,0.064267038,543376.7295000004,179976.90190000087,111
Custom House Library,,,,Newham,,10008990024,E09000025,Custom House,E05013908,51.51466945,0.033005735,541163.4386999998,181486.05340000056,111
Beckton Library,,,,Newham,,10008997116,E09000025,Beckton,E05013904,51.51452083,0.056999433,542828.6522000004,181516.05729999952,111
Canning Town Library,,,,Newham,,10008988046,E09000025,Canning Town North,E05013906,51.5168551,0.012662185,539745.2476000004,181690.03089999966,111
Plaistow Library,,,,Newham,,46096940,E09000025,Plaistow North,E05013918,51.52918631,0.027235955,540718.3915999997,183089.1964999996,111
East Ham Library,,,,Newham,,46253323,E09000025,East Ham,E05013909,51.5317699,0.057056061,542778.6666000001,183434.2620000001,111
Green Street Library,,,,Newham,,10009001054,E09000025,Green Street East,E05013913,51.53588095,0.036907327,541368.4901999999,183852.29389999993,111
Stratford Library,,,,Newham,,46101428,E09000025,Stratford,E05013924,51.54226038,0.005951316,539202.1903999997,184502.30709999986,111
The Gate Library ,,,,Newham,,10008993577,E09000025,Forest Gate South,E05013912,51.54719385,0.02711327,540654.4039000003,185091.4031000007,111
Manor Park Library,,,,Newham,,10008990819,E09000025,Manor Park,E05013916,51.55021122,0.048597724,542134.6150000002,185468.4849999994,111
Create London - Old Manor Park Library,Old Manor Park Library,835 Romford Road,,Newham,www.createlondon.org,10008995499,E09000025,Manor Park,E05013916,51.55312932,0.053754443,542483.0120999999,185803.0022,111
Workshop East,Workshop East,Unit A2,107 High Street,Newham,http://www.workshopeast.co.uk/,46251688,E09000025,Plaistow North,E05013918,51.52983552,0.023914481,540486.0122999996,183155.0014999993,111
not/nowhere,"Warton House, 150 High St",Stratford,,Newham,https://not-nowhere.org/,10093475501,E09000025,Stratford,E05013924,51.5346,-0.00683,538339.1189000001,183626.22470000014,111
J.D. McDougall Ltd,4 McGrath Road,,,Newham,http://www.mcdougall.co.uk/,46255499,E09000025,Forest Gate South,E05013912,51.54601463,0.014122057,539757.2737999996,184935.36620000005,111
Studio Meno Ltd,Napier Works,Napier Road,,Newham,https://www.studiomeno.com,10008994852,E09000025,Wall End,E05013926,51.53024383,0.063548175,543233.7198999999,183277.24010000005,111
The Silver Building (Projekt),"60 Dock road, London E16 1YZ",,,Newham,http://thesilverbuilding.com,10008985422,E09000025,Royal Victoria,E05013923,51.504762,0.017112899,540091.1370999999,180353.8239999991,111
House Mill,Three Mill Lane,Bromley-by-Bow,NA,Newham,NA,10008997232,E09000025,Stratford,E05013924,51.52689584,-0.005984978,538421.0757999998,182771.11260000058,111
Rosetta Arts,"1 HAMILTON RD, LONDON E15 3AE",,,Newham,https://rosettaarts.org,46034253,E09000025,Canning Town North,E05013906,51.524916,0.007076147,539333.0970999999,182575.73460000008,111
Lunarattic Club,29 Broadway; Stratford; London E15 4BQ,,,Newham,,46255417,E09000025,Stratford,E05013924,51.54107,0.00256,538970.6529999999,184363.48740000091,111
Arch 1,"Unit 1, West Ham Arches, Cranberry Lane, London E1",Cranberry Lane,Unit 1 The Arches,Newham,,10023994435,E09000025,Canning Town North,E05013906,51.52228,0.00472,539177.6854999997,182278.12519999966,111
Forest Tavern,"173 Forest Lane, London E7 9BB",Newham,173 Forest Lane,Newham,www.foresttavern.com,10008986026,E09000025,Forest Gate North,E05013911,51.549864,0.024494,540464.5806999998,185383.29209999926,111
Fold,"Gillian House, Stephenson St, London E16 4SA, UK",Stephenson Street,Gillian House,Newham,https://www.fold.london,,E09000025,Canning Town North,E05013906,51.519032,0.003758,539120.8391000004,181915.11820000038,111
Village Vanguard,"1 Liberty Bridge Road, London, E20 1AS",,,Newham,,10090850895,E09000025,Stratford Olympic Park,E05013925,51.547359,-0.007522,538252.4771999996,185043.73029999994,111
Sugarhouse Studios,"107 High Street, Stratford, London, E15 2QQ",,,Newham,,46255661,E09000025,Stratford,E05013924,51.531081,-0.010681,538082.6809,183227.63900000043,111
Pier One,162 Bidder St N,,162 Bidder St N,Newham,Pier One Nightspot | London Nightclub | Afro-Beat Music Nightclub,,E09000025,Canning Town North,E05013906,51.517710011,0.003549987,539110.4364999998,181767.72430000082,111
Lunarattic Club,29 Broadway; Stratford; London E15 4BQ,,,Newham,,46255417,E09000025,Stratford,E05013924,51.54107,0.00256,538970.6529999999,184363.48740000091,111
Fold,"Gillian House, Stephenson St, London E16 4SA, UK",Stephenson Street,Gillian House,Newham,https://www.fold.london,,E09000025,Canning Town North,E05013906,51.519032,0.003758,539120.8391000004,181915.11820000038,111
Sugarhouse Studios,"107 High Street, Stratford, London, E15 2QQ",,,Newham,,46255661,E09000025,Stratford,E05013924,51.531081,-0.010681,538082.6809,183227.63900000043,111
Pier One,162 Bidder St N,,162 Bidder St N,Newham,Pier One Nightspot | London Nightclub | Afro-Beat Music Nightclub,,E09000025,Canning Town North,E05013906,51.517710011,0.003549987,539110.4364999998,181767.72430000082,111
Press Play Studio Ltd,151 Earlham Grove,Newham,,Newham,http://www.pressplaystudio.co.uk/home/,46022854,E09000025,Forest Gate South,E05013912,51.54775126,0.022435477,540328.3578000003,185144.40080000088,111
Arcus Sounds,"Unit 7, The Arches",Cranberry Lane,,Newham,https://www.arcussounds.com/writing-rehearsal,10023994441,E09000025,Canning Town North,E05013906,51.522905,0.004796566,539181.0931000002,182347.77080000006,111
Profonic Studios,12 Cody Lane,Stratford,,Newham,https://profonicstudios.com/,10008989066,E09000025,Canning Town North,E05013906,51.521321,0.002233231,539008.0921,182166.7577999998,111
Arch3 Studios,Unit 3 The Arches,Cranberry Lane,Newham,Newham,www.arch3studios.uk,10023994437,E09000025,Canning Town North,E05013906,51.52239429,0.006418797,539295.1864,182294.0686000008,111
Mustard Seed Studio,Burford Road,Stratford,,Newham,https://domclarktrio.com/mustard-seed,10009017863,E09000025,Stratford,E05013924,51.537326,-0.000294467,538784.0944999997,183941.73189999908,111
Arcus Sounds,"Unit 7, The Arches",Cranberry Lane,,Newham,https://www.arcussounds.com/writing-rehearsal,10023994441,E09000025,Canning Town North,E05013906,51.522905,0.004796566,539181.0931000002,182347.77080000006,111
Studio Meno Ltd,Napier Works,Napier Road,,Newham,https://www.studiomeno.com,10008994852,E09000025,Wall End,E05013926,51.53024383,0.063548175,543233.7198999999,183277.24010000005,111
Andrew Lim Clarkson,1 Dye House Lane,,,Newham,http://andrewlimclarkson.com/,6713918,E09000025,Stratford Olympic Park,E05013925,51.53428947,-0.018770269,537511.9671,183569.21550000086,111
Block 9 ,The Silver Building,60 Dock Road,,Newham,https://www.block9.com,10008985422,E09000025,Royal Victoria,E05013923,51.5042494,0.01873578,540205.3361999998,180299.92980000004,111
J.D. McDougall Ltd,4 McGrath Road,,,Newham,http://www.mcdougall.co.uk/,46255499,E09000025,Forest Gate South,E05013912,51.54601463,0.014122057,539757.2737999996,184935.36620000005,111
Rigging Services,3 Mills Studios,Three Mill Lane,,Newham,https://riggingservices.co.uk,10009018097,E09000025,Stratford,E05013924,51.52633408,-0.004683048,538513.0877,182711.10649999976,111
Studio Meno Ltd,Napier Works,Napier Road,,Newham,https://www.studiomeno.com,10008994852,E09000025,Wall End,E05013926,51.53024383,0.063548175,543233.7198999999,183277.24010000005,111
Cutting Edge,"Unit 1, Beeby Road",,,Newham,http://cuttingedge.uk.net/,10008984020,E09000025,Custom House,E05013908,51.517041,0.024199117,540545.1095000003,181732.80670000054,111
Silver Building (Projekt),"60 Dock road, London E16 1YZ",,,Newham,http://thesilverbuilding.com,10008985422,E09000025,Royal Victoria,E05013923,51.504762,0.017112899,540091.1370999999,180353.8239999991,111
Embroidered Polo Shirts,"UNIT 12B, ABBEY INDUSTRIAL AREA, Canning Rd, Londo",,,Newham,https://www.embroidered-polo-shirts.com,10008998902,E09000025,Stratford,E05013924,51.531443,0.003499181,539065.0959999999,183294.73369999975,111
Roxy Embroidery Ltd,"Kubrick Business Estate, Station Approach, London ",,,Newham,http://roxyembroidery.com/how-its-made,10008999392,E09000025,Forest Gate North,E05013911,51.551693,0.026140924,540573.1292000003,185589.8434999995,111
The Silver Building (Projekt),"60 Dock road, London E16 1YZ",,,Newham,http://thesilverbuilding.com,10008985422,E09000025,Royal Victoria,E05013923,51.504762,0.017112899,540091.1370999999,180353.8239999991,111
Applecart Arts Theatre,170 Harold Road,,,Newham,http://www.applecartarts.com/index.php,10012836969,E09000025,Green Street West,E05013914,51.53418781,0.027567994,540726.0125000002,183646.0014999993,111
Stratford Circus,Theatre Square,Stratford,,Newham,www.stratford-circus.com,10008991166,E09000025,Stratford,E05013924,51.54293683,0.001464562,538889.0111999996,184569.00159999914,111
3 Mills Studios,Three Mill Lane,,,Newham,www.3mills.com,10009018097,E09000025,Stratford,E05013924,51.52684777,-0.006391701,538393.0092000002,182764.99840000086,111
Applecart Arts,The Passmore Edwards Library,207 Plashet Grove, ,Newham,https://applecartarts.com/our_venue.php#the_theatre,10008996260,E09000025,Plashet,E05013921,51.539588,0.045359576,541943.1404999997,184280.89220000058,111
Brick Lane Music Hall,443 North Woolwich Road,,,Newham,https://www.bricklanemusichall.co.uk/,10008988100,E09000025,Royal Albert,E05013922,51.50293962,0.041183788,541767.2598000001,180197.50469999947,111
Stratford Circus Arts Centre,Theatre Square, Stratford,,Newham,https://stratford-circus.com/,10008996899,E09000025,Stratford Olympic Park,E05013925,51.54344506,-0.000157784,538774.9709000001,184622.43889999948,111
Theatre Royal Stratford East,Gerry Raffles Square,,,Newham,http://www.stratfordeast.com/,10009003230,E09000025,Stratford Olympic Park,E05013925,51.5430221,-0.000637702,538742.9787999997,184574.49489999935,111
Applecart Arts,170 Harold Rd,,,Newham,http://www.applecartarts.com/,10012836969,E09000025,Plaistow North,E05013918,51.53441802,0.025974218,540614.7690000003,183668.5343999993,111
Applecart Arts,The Passmore Edwards Library,207 Plashet Grove,,Newham,https://applecartarts.com/our_venue.php#the_theatre,10008996260,E09000025,Plashet,E05013921,51.539588,0.045359576,541943.1404999997,184280.89220000058,111
